=~=~=~=~=~=~=~=~=~=~=~= PuTTY log 2017.11.25 17:44:38 =~=~=~=~=~=~=~=~=~=~=~=
T,,M,0.00,N,0.0,K,A*38
$GPGGA,224438.000,3257.5503,N,08009.2800,W,1,10,0.8,-8.6,M,-32.2,M,,0000*4A
$GPGSA,M,3,31,14,32,25,10,26,22,01,12,18,,,1.4,0.8,1.1*3C
$GPRMC,224438.000,A,3257.5503,N,08009.2800,W,0.00,62.54,251117,,,A*48
$GPVTG,62.54,T,,M,0.00,N,0.0,K,A*38
$GPGGA,224439.000,3257.5503,N,08009.2800,W,1,10,0.8,-8.6,M,-32.2,M,,0000*4B
$GPGSA,M,3,31,14,32,25,10,26,22,01,12,18,,,1.4,0.8,1.1*3C
$GPGSV,3,1,12,31,70,297,12,14,63,015,28,32,58,061,36,25,36,055,39*7A
$GPGSV,3,2,12,10,33,159,28,26,30,184,22,22,29,311,25,01,15,284,11*73
$GPGSV,3,3,12,12,05,034,17,18,05,151,13,03,10,320,22,33,12,104,*73
$GPRMC,224439.000,A,3257.5503,N,08009.2800,W,0.00,62.54,251117,,,A*49
$GPVTG,62.54,T,,M,0.00,N,0.0,K,A*38
$GPGGA,224440.000,3257.5503,N,08009.2800,W,1,10,0.8,-8.6,M,-32.2,M,,0000*45
$GPGSA,M,3,31,14,32,25,10,26,22,01,12,18,,,1.4,0.8,1.1*3C
$GPRMC,224440.000,A,3257.5503,N,08009.2800,W,0.00,62.54,251117,,,A*47
$GPVTG,62.54,T,,M,0.00,N,0.0,K,A*38
$GPGGA,224441.000,3257.5503,N,08009.2800,W,1,10,0.8,-8.6,M,-32.2,M,,0000*44
$GPGSA,M,3,31,14,32,25,10,26,22,01,12,18,,,1.4,0.8,1.1*3C
$GPRMC,224441.000,A,3257.5503,N,08009.2800,W,0.00,62.54,251117,,,A*46
$GPVTG,62.54,T,,M,0.00,N,0.0,K,A*38
$GPGGA,224442.000,3257.5503,N,08009.2800,W,1,09,1.0,-8.6,M,-32.2,M,,0000*46
$GPGSA,M,3,31,14,32,25,10,26,22,12,18,,,,1.6,1.0,1.2*35
$GPRMC,224442.000,A,3257.5503,N,08009.2800,W,0.00,62.54,251117,,,A*45
$GPVTG,62.54,T,,M,0.00,N,0.0,K,A*38
$GPGGA,224443.000,3257.5503,N,08009.2800,W,1,09,1.0,-8.6,M,-32.2,M,,0000*47
$GPGSA,M,3,31,14,32,25,10,26,22,12,18,,,,1.6,1.0,1.2*35
$GPRMC,224443.000,A,3257.5503,N,08009.2800,W,0.00,62.54,251117,,,A*44
$GPVTG,62.54,T,,M,0.00,N,0.0,K,A*38
$GPGGA,224444.000,3257.5503,N,08009.2800,W,1,09,1.0,-8.5,M,-32.2,M,,0000*43
$GPGSA,M,3,31,14,32,25,10,26,22,12,18,,,,1.6,1.0,1.2*35
$GPGSV,3,1,12,31,70,297,10,14,63,015,23,32,58,061,36,25,36,055,38*72
$GPGSV,3,2,12,10,33,159,29,26,30,184,21,22,29,311,26,12,05,034,15*7C
$GPGSV,3,3,12,18,05,151,13,01,15,284,12,03,10,320,22,34,00,000,*7D
$GPRMC,224444.000,A,3257.5503,N,08009.2800,W,0.00,62.54,251117,,,A*43
$GPVTG,62.54,T,,M,0.00,N,0.0,K,A*38
$GPGGA,224445.000,3257.5503,N,08009.2800,W,1,09,1.0,-8.5,M,-32.2,M,,0000*42
$GPGSA,M,3,31,14,32,25,10,26,22,12,18,,,,1.6,1.0,1.2*35
$GPRMC,224445.000,A,3257.5503,N,08009.2800,W,0.00,62.54,251117,,,A*42
$GPVTG,62.54,T,,M,0.00,N,0.0,K,A*38
$GPGGA,224446.000,3257.5503,N,08009.2800,W,1,09,1.0,-8.5,M,-32.2,M,,0000*41
$GPGSA,M,3,31,14,32,25,10,26,22,12,18,,,,1.6,1.0,1.2*35
$GPRMC,224446.000,A,3257.5503,N,08009.2800,W,0.00,62.54,251117,,,A*41
$GPVTG,62.54,T,,M,0.00,N,0.0,K,A*38
$GPGGA,224447.000,3257.5503,N,08009.2800,W,1,09,1.0,-8.5,M,-32.2,M,,0000*40
$GPGSA,M,3,31,14,32,25,10,26,22,12,18,,,,1.6,1.0,1.2*35
$GPRMC,224447.000,A,3257.5503,N,08009.2800,W,0.00,62.54,251117,,,A*40
$GPVTG,62.54,T,,M,0.00,N,0.0,K,A*38
$GPGGA,224448.000,3257.5503,N,08009.2800,W,1,10,0.8,-8.5,M,-32.2,M,,0000*4E
$GPGSA,M,3,31,14,32,25,10,26,22,01,12,18,,,1.4,0.8,1.1*3C
$GPRMC,224448.000,A,3257.5503,N,08009.2800,W,0.00,62.54,251117,,,A*4F
$GPVTG,62.54,T,,M,0.00,N,0.0,K,A*38
$GPGGA,224449.000,3257.5503,N,08009.2800,W,1,10,0.8,-8.5,M,-32.2,M,,0000*4F
$GPGSA,M,3,31,14,32,25,10,26,22,01,12,18,,,1.4,0.8,1.1*3C
$GPGSV,3,1,12,31,70,297,13,14,63,015,23,32,58,061,36,25,36,055,38*71
$GPGSV,3,2,12,10,33,159,29,26,30,184,20,22,29,311,26,01,15,284,16*74
$GPGSV,3,3,12,12,05,034,10,18,05,151,13,03,10,320,21,34,00,000,*76
$GPRMC,224449.000,A,3257.5503,N,08009.2800,W,0.00,62.54,251117,,,A*4E
$GPVTG,62.54,T,,M,0.00,N,0.0,K,A*38
$GPGGA,224450.000,3257.5503,N,08009.2800,W,1,10,0.8,-8.5,M,-32.2,M,,0000*47
$GPGSA,M,3,31,14,32,25,10,26,22,01,12,18,,,1.4,0.8,1.1*3C
$GPRMC,224450.000,A,3257.5503,N,08009.2800,W,0.00,62.54,251117,,,A*46
$GPVTG,62.54,T,,M,0.00,N,0.0,K,A*38
$GPGGA,224451.000,3257.5503,N,08009.2800,W,1,10,0.8,-8.5,M,-32.2,M,,0000*46
$GPGSA,M,3,31,14,32,25,10,26,22,01,12,18,,,1.4,0.8,1.1*3C
$GPRMC,224451.000,A,3257.5503,N,08009.2800,W,0.00,62.54,251117,,,A*47
$GPVTG,62.54,T,,M,0.00,N,0.0,K,A*38
$GPGGA,224452.000,3257.5503,N,08009.2800,W,1,10,0.8,-8.5,M,-32.2,M,,0000*45
$GPGSA,M,3,31,14,32,25,10,26,22,01,12,18,,,1.4,0.8,1.1*3C
$GPRMC,224452.000,A,3257.5503,N,08009.2800,W,0.00,62.54,251117,,,A*44
$GPVTG,62.54,T,,M,0.00,N,0.0,K,A*38
$GPGGA,224453.000,3257.5503,N,08009.2800,W,1,10,0.8,-8.5,M,-32.2,M,,0000*44
$GPGSA,M,3,31,14,32,25,10,26,22,01,12,18,,,1.4,0.8,1.1*3C
$GPRMC,224453.000,A,3257.5503,N,08009.2800,W,0.00,62.54,251117,,,A*45
$GPVTG,62.54,T,,M,0.00,N,0.0,K,A*38
$GPGGA,224454.000,3257.5503,N,08009.2800,W,1,10,0.8,-8.5,M,-32.2,M,,0000*43
$GPGSA,M,3,31,14,32,25,10,26,22,01,12,18,,,1.4,0.8,1.1*3C
$GPGSV,3,1,12,31,70,297,15,14,63,015,22,32,58,061,36,25,36,055,37*79
$GPGSV,3,2,12,10,33,159,29,26,30,184,20,22,29,311,27,01,15,284,18*7B
$GPGSV,3,3,12,12,05,034,12,18,05,151,13,03,10,320,21,34,00,000,*74
$GPRMC,224454.000,A,3257.5503,N,08009.2800,W,0.00,62.54,251117,,,A*42
$GPVTG,62.54,T,,M,0.00,N,0.0,K,A*38
$GPGGA,224455.000,3257.5503,N,08009.2800,W,1,10,0.8,-8.5,M,-32.2,M,,0000*42
$GPGSA,M,3,31,14,32,25,10,26,22,01,12,18,,,1.4,0.8,1.1*3C
$GPRMC,224455.000,A,3257.5503,N,08009.2800,W,0.00,62.54,251117,,,A*43
$GPVTG,62.54,T,,M,0.00,N,0.0,K,A*38
$GPGGA,224456.000,3257.5503,N,08009.2800,W,1,10,0.8,-8.5,M,-32.2,M,,0000*41
$GPGSA,M,3,31,14,32,25,10,26,22,01,12,18,,,1.4,0.8,1.1*3C
$GPRMC,224456.000,A,3257.5503,N,08009.2800,W,0.00,62.54,251117,,,A*40
$GPVTG,62.54,T,,M,0.00,N,0.0,K,A*38
$GPGGA,224457.000,3257.5503,N,08009.2800,W,1,10,0.8,-8.4,M,-32.2,M,,0000*41
$GPGSA,M,3,31,14,32,25,10,26,22,01,12,18,,,1.4,0.8,1.1*3C
$GPRMC,224457.000,A,3257.5503,N,08009.2800,W,0.00,62.54,251117,,,A*41
$GPVTG,62.54,T,,M,0.00,N,0.0,K,A*38
$GPGGA,224458.000,3257.5503,N,08009.2800,W,1,10,0.8,-8.4,M,-32.2,M,,0000*4E
$GPGSA,M,3,31,14,32,25,10,26,22,01,12,18,,,1.4,0.8,1.1*3C
$GPRMC,224458.000,A,3257.5503,N,08009.2800,W,0.00,62.54,251117,,,A*4E
$GPVTG,62.54,T,,M,0.00,N,0.0,K,A*38
$GPGGA,224459.000,3257.5503,N,08009.2800,W,1,10,0.8,-8.4,M,-32.2,M,,0000*4F
$GPGSA,M,3,31,14,32,25,10,26,22,01,12,18,,,1.4,0.8,1.1*3C
$GPGSV,3,1,12,31,70,297,16,14,63,015,21,32,58,061,36,25,36,055,37*79
$GPGSV,3,2,12,10,33,159,29,26,30,184,21,22,29,311,27,01,15,284,19*7B
$GPGSV,3,3,12,12,05,034,13,18,05,151,11,03,10,320,21,34,00,000,*77
$GPRMC,224459.000,A,3257.5503,N,08009.2800,W,0.00,62.54,251117,,,A*4F
$GPVTG,62.54,T,,M,0.00,N,0.0,K,A*38
$GPGGA,224500.000,3257.5503,N,08009.2800,W,1,10,0.8,-8.4,M,-32.2,M,,0000*42
$GPGSA,M,3,31,14,32,25,10,26,22,01,12,18,,,1.4,0.8,1.1*3C
$GPRMC,224500.000,A,3257.5503,N,08009.2800,W,0.00,62.54,251117,,,A*42
$GPVTG,62.54,T,,M,0.00,N,0.0,K,A*38
$GPGGA,224501.000,3257.5503,N,08009.2800,W,1,10,0.8,-8.4,M,-32.2,M,,0000*43
$GPGSA,M,3,31,14,32,25,10,26,22,01,12,18,,,1.4,0.8,1.1*3C
$GPRMC,224501.000,A,3257.5503,N,08009.2800,W,0.00,62.54,251117,,,A*43
$GPVTG,62.54,T,,M,0.00,N,0.0,K,A*38
$GPGGA,224502.000,3257.5503,N,08009.2800,W,1,10,0.8,-8.4,M,-32.2,M,,0000*40
$GPGSA,M,3,31,14,32,25,10,26,22,01,12,18,,,1.4,0.8,1.1*3C
$GPRMC,224502.000,A,3257.5503,N,08009.2800,W,0.00,62.54,251117,,,A*40
$GPVTG,62.54,T,,M,0.00,N,0.0,K,A*38
$GPGGA,224503.000,3257.5502,N,08009.2801,W,1,10,0.8,-8.0,M,-32.2,M,,0000*45
$GPGSA,M,3,31,14,32,25,10,26,22,01,12,18,,,1.4,0.8,1.1*3C
$GPRMC,224503.000,A,3257.5502,N,08009.2801,W,0.05,62.54,251117,,,A*44
$GPVTG,62.54,T,,M,0.05,N,0.1,K,A*3C
$GPGGA,224504.000,3257.5502,N,08009.2801,W,1,10,0.8,-8.0,M,-32.2,M,,0000*42
$GPGSA,M,3,31,14,32,25,10,26,22,01,12,18,,,1.4,0.8,1.1*3C
$GPGSV,3,1,12,31,70,297,23,14,63,015,20,32,58,061,35,25,36,055,37*7D
$GPGSV,3,2,12,10,33,159,29,26,30,184,21,22,29,311,27,01,15,284,20*71
$GPGSV,3,3,12,12,05,034,15,18,05,151,09,03,10,320,21,34,00,000,*78
$GPRMC,224504.000,A,3257.5502,N,08009.2801,W,0.00,62.54,251117,,,A*46
$GPVTG,62.54,T,,M,0.00,N,0.0,K,A*38
$GPGGA,224505.000,3257.5502,N,08009.2801,W,1,10,0.8,-8.0,M,-32.2,M,,0000*43
$GPGSA,M,3,31,14,32,25,10,26,22,01,12,18,,,1.4,0.8,1.1*3C
$GPRMC,224505.000,A,3257.5502,N,08009.2801,W,0.00,62.54,251117,,,A*47
$GPVTG,62.54,T,,M,0.00,N,0.0,K,A*38
$GPGGA,224506.000,3257.5502,N,08009.2802,W,1,10,0.8,-8.0,M,-32.2,M,,0000*43
$GPGSA,M,3,31,14,32,25,10,26,22,01,12,18,,,1.4,0.8,1.1*3C
$GPRMC,224506.000,A,3257.5502,N,08009.2802,W,0.00,62.54,251117,,,A*47
$GPVTG,62.54,T,,M,0.00,N,0.0,K,A*38
$GPGGA,224507.000,3257.5502,N,08009.2802,W,1,10,0.8,-8.0,M,-32.2,M,,0000*42
$GPGSA,M,3,31,14,32,25,10,26,22,01,12,18,,,1.4,0.8,1.1*3C
$GPRMC,224507.000,A,3257.5502,N,08009.2802,W,0.00,62.54,251117,,,A*46
$GPVTG,62.54,T,,M,0.00,N,0.0,K,A*38
$GPGGA,224508.000,3257.5502,N,08009.2802,W,1,10,0.8,-8.0,M,-32.2,M,,0000*4D
$GPGSA,M,3,31,14,32,25,10,26,22,01,12,18,,,1.4,0.8,1.1*3C
$GPRMC,224508.000,A,3257.5502,N,08009.2802,W,0.00,62.54,251117,,,A*49
$GPVTG,62.54,T,,M,0.00,N,0.0,K,A*38
$GPGGA,224509.000,3257.5502,N,08009.2802,W,1,10,0.8,-8.0,M,-32.2,M,,0000*4C
$GPGSA,M,3,31,14,32,25,10,26,22,01,12,18,,,1.4,0.8,1.1*3C
$GPGSV,3,1,12,31,70,297,23,14,63,015,20,32,58,061,34,25,36,055,37*7C
$GPGSV,3,2,12,10,33,159,29,26,30,184,21,22,29,311,26,01,15,284,22*72
$GPGSV,3,3,12,12,05,034,16,18,05,151,09,03,10,320,22,34,00,000,*78
$GPRMC,224509.000,A,3257.5502,N,08009.2802,W,0.00,62.54,251117,,,A*48
$GPVTG,62.54,T,,M,0.00,N,0.0,K,A*38
$GPGGA,224510.000,3257.5502,N,08009.2802,W,1,10,0.8,-8.0,M,-32.2,M,,0000*44
$GPGSA,M,3,31,14,32,25,10,26,22,01,12,18,,,1.4,0.8,1.1*3C
$GPRMC,224510.000,A,3257.5502,N,08009.2802,W,0.00,62.54,251117,,,A*40
$GPVTG,62.54,T,,M,0.00,N,0.0,K,A*38
$GPGGA,224511.000,3257.5502,N,08009.2802,W,1,10,0.8,-8.0,M,-32.2,M,,0000*45
$GPGSA,M,3,31,14,32,25,10,26,22,01,12,18,,,1.4,0.8,1.1*3C
$GPRMC,224511.000,A,3257.5502,N,08009.2802,W,0.00,62.54,251117,,,A*41
$GPVTG,62.54,T,,M,0.00,N,0.0,K,A*38
$GPGGA,224512.000,3257.5502,N,08009.2802,W,1,10,0.8,-8.0,M,-32.2,M,,0000*46
$GPGSA,M,3,31,14,32,25,10,26,22,01,12,18,,,1.4,0.8,1.1*3C
$GPRMC,224512.000,A,3257.5502,N,08009.2802,W,0.00,62.54,251117,,,A*42
$GPVTG,62.54,T,,M,0.00,N,0.0,K,A*38
$GPGGA,224513.000,3257.5502,N,08009.2802,W,1,10,0.8,-7.9,M,-32.2,M,,0000*41
$GPGSA,M,3,31,14,32,25,10,26,22,01,12,18,,,1.4,0.8,1.1*3C
$GPRMC,224513.000,A,3257.5502,N,08009.2802,W,0.00,62.54,251117,,,A*43
$GPVTG,62.54,T,,M,0.00,N,0.0,K,A*38
$GPGGA,224514.000,3257.5502,N,08009.2802,W,1,10,0.8,-7.9,M,-32.2,M,,0000*46
$GPGSA,M,3,31,14,32,25,10,26,22,01,12,18,,,1.4,0.8,1.1*3C
$GPGSV,3,1,12,31,70,297,23,14,63,015,21,32,58,061,34,25,36,055,36*7C
$GPGSV,3,2,12,10,33,159,30,26,30,184,20,22,29,311,26,01,15,284,23*7A
$GPGSV,3,3,12,12,05,034,15,18,05,151,09,03,10,320,23,35,00,000,*7B
$GPRMC,224514.000,A,3257.5502,N,08009.2802,W,0.00,62.54,251117,,,A*44
$GPVTG,62.54,T,,M,0.00,N,0.0,K,A*38
$GPGGA,224515.000,3257.5502,N,08009.2802,W,1,10,0.8,-7.9,M,-32.2,M,,0000*47
$GPGSA,M,3,31,14,32,25,10,26,22,01,12,18,,,1.4,0.8,1.1*3C
$GPRMC,224515.000,A,3257.5502,N,08009.2802,W,0.00,62.54,251117,,,A*45
$GPVTG,62.54,T,,M,0.00,N,0.0,K,A*38
$GPGGA,224516.000,3257.5502,N,08009.2802,W,1,10,0.8,-7.9,M,-32.2,M,,0000*44
$GPGSA,M,3,31,14,32,25,10,26,22,01,12,18,,,1.4,0.8,1.1*3C
$GPRMC,224516.000,A,3257.5502,N,08009.2802,W,0.00,62.54,251117,,,A*46
$GPVTG,62.54,T,,M,0.00,N,0.0,K,A*38
$GPGGA,224517.000,3257.5502,N,08009.2802,W,1,10,0.8,-7.9,M,-32.2,M,,0000*45
$GPGSA,M,3,31,14,32,25,10,26,22,01,12,18,,,1.4,0.8,1.1*3C
$GPRMC,224517.000,A,3257.5502,N,08009.2802,W,0.00,62.54,251117,,,A*47
$GPVTG,62.54,T,,M,0.00,N,0.0,K,A*38
$GPGGA,224518.000,3257.5502,N,08009.2802,W,1,10,0.8,-7.9,M,-32.2,M,,0000*4A
$GPGSA,M,3,31,14,32,25,10,26,22,01,12,18,,,1.4,0.8,1.1*3C
$GPRMC,224518.000,A,3257.5502,N,08009.2802,W,0.00,62.54,251117,,,A*48
$GPVTG,62.54,T,,M,0.00,N,0.0,K,A*38
$GPGGA,224519.000,3257.5502,N,08009.2802,W,1,09,1.0,-7.9,M,-32.2,M,,0000*4A
$GPGSA,M,3,31,14,32,25,10,26,22,01,18,,,,1.8,1.0,1.5*3E
$GPGSV,3,1,12,31,70,297,23,14,63,015,23,32,58,061,33,25,36,055,37*78
$GPGSV,3,2,12,10,33,159,30,26,30,184,21,22,29,311,26,01,15,284,22*7A
$GPGSV,3,3,12,18,05,151,09,03,10,320,23,12,05,034,06,35,00,000,*79
$GPRMC,224519.000,A,3257.5502,N,08009.2802,W,0.00,62.54,251117,,,A*49
$GPVTG,62.54,T,,M,0.00,N,0.0,K,A*38
$GPGGA,224520.000,3257.5501,N,08009.2802,W,1,09,1.0,-7.9,M,-32.2,M,,0000*43
$GPGSA,M,3,31,14,32,25,10,26,22,01,18,,,,1.8,1.0,1.5*3E
$GPRMC,224520.000,A,3257.5501,N,08009.2802,W,0.00,62.54,251117,,,A*40
$GPVTG,62.54,T,,M,0.00,N,0.0,K,A*38
$GPGGA,224521.000,3257.5501,N,08009.2802,W,1,09,1.0,-7.9,M,-32.2,M,,0000*42
$GPGSA,M,3,31,14,32,25,10,26,22,01,18,,,,1.8,1.0,1.5*3E
$GPRMC,224521.000,A,3257.5501,N,08009.2802,W,0.00,62.54,251117,,,A*41
$GPVTG,62.54,T,,M,0.00,N,0.0,K,A*38
$GPGGA,224522.000,3257.5501,N,08009.2802,W,1,09,1.0,-7.9,M,-32.2,M,,0000*41
$GPGSA,M,3,31,14,32,25,10,26,22,01,18,,,,1.8,1.0,1.5*3E
$GPRMC,224522.000,A,3257.5501,N,08009.2802,W,0.00,62.54,251117,,,A*42
$GPVTG,62.54,T,,M,0.00,N,0.0,K,A*38
$GPGGA,224523.000,3257.5501,N,08009.2802,W,1,09,1.0,-7.9,M,-32.2,M,,0000*40
$GPGSA,M,3,31,14,32,25,10,26,22,01,18,,,,1.8,1.0,1.5*3E
$GPRMC,224523.000,A,3257.5501,N,08009.2802,W,0.00,62.54,251117,,,A*43
$GPVTG,62.54,T,,M,0.00,N,0.0,K,A*38
$GPGGA,224524.000,3257.5501,N,08009.2802,W,1,09,1.0,-7.9,M,-32.2,M,,0000*47
$GPGSA,M,3,31,14,32,25,10,26,22,01,18,,,,1.8,1.0,1.5*3E
$GPGSV,3,1,12,31,70,297,22,14,63,015,25,32,58,061,33,25,36,055,36*7E
$GPGSV,3,2,12,10,33,159,30,26,30,184,22,22,29,311,26,01,15,284,21*7A
$GPGSV,3,3,12,18,05,151,09,03,10,320,24,12,05,034,04,35,00,000,*7C
$GPRMC,224524.000,A,3257.5501,N,08009.2802,W,0.00,62.54,251117,,,A*44
$GPVTG,62.54,T,,M,0.00,N,0.0,K,A*38
$GPGGA,224525.000,3257.5501,N,08009.2802,W,1,09,1.0,-7.9,M,-32.2,M,,0000*46
$GPGSA,M,3,31,14,32,25,10,26,22,01,18,,,,1.8,1.0,1.5*3E
$GPRMC,224525.000,A,3257.5501,N,08009.2802,W,0.00,62.54,251117,,,A*45
$GPVTG,62.54,T,,M,0.00,N,0.0,K,A*38
$GPGGA,224526.000,3257.5501,N,08009.2802,W,1,09,1.0,-7.9,M,-32.2,M,,0000*45
$GPGSA,M,3,31,14,32,25,10,26,22,01,18,,,,1.8,1.0,1.5*3E
$GPRMC,224526.000,A,3257.5501,N,08009.2802,W,0.00,62.54,251117,,,A*46
$GPVTG,62.54,T,,M,0.00,N,0.0,K,A*38
$GPGGA,224527.000,3257.5502,N,08009.2802,W,1,09,1.0,-7.9,M,-32.2,M,,0000*47
$GPGSA,M,3,31,14,32,25,10,26,22,01,18,,,,1.8,1.0,1.5*3E
$GPRMC,224527.000,A,3257.5502,N,08009.2802,W,0.00,62.54,251117,,,A*44
$GPVTG,62.54,T,,M,0.00,N,0.0,K,A*38
$GPGGA,224528.000,3257.5502,N,08009.2802,W,1,09,1.0,-7.9,M,-32.2,M,,0000*48
$GPGSA,M,3,31,14,32,25,10,26,22,01,18,,,,1.8,1.0,1.5*3E
$GPRMC,224528.000,A,3257.5502,N,08009.2802,W,0.00,62.54,251117,,,A*4B
$GPVTG,62.54,T,,M,0.00,N,0.0,K,A*38
$GPGGA,224529.000,3257.5502,N,08009.2802,W,1,09,1.0,-7.9,M,-32.2,M,,0000*49
$GPGSA,M,3,31,14,32,25,10,26,22,01,18,,,,1.8,1.0,1.5*3E
$GPGSV,3,1,12,31,70,297,23,14,63,015,26,32,58,061,31,25,36,055,36*7E
$GPGSV,3,2,12,10,33,159,30,26,30,184,23,22,29,311,26,01,15,284,21*7B
$GPGSV,3,3,12,18,05,151,09,03,10,320,25,12,05,034,04,35,00,000,*7D
$GPRMC,224529.000,A,3257.5502,N,08009.2802,W,0.00,62.54,251117,,,A*4A
$GPVTG,62.54,T,,M,0.00,N,0.0,K,A*38
$GPGGA,224530.000,3257.5502,N,08009.2802,W,1,09,1.0,-7.9,M,-32.2,M,,0000*41
$GPGSA,M,3,31,14,32,25,10,26,22,01,18,,,,1.8,1.0,1.5*3E
$GPRMC,224530.000,A,3257.5502,N,08009.2802,W,0.00,62.54,251117,,,A*42
$GPVTG,62.54,T,,M,0.00,N,0.0,K,A*38
$GPGGA,224531.000,3257.5502,N,08009.2802,W,1,09,1.0,-7.9,M,-32.2,M,,0000*40
$GPGSA,M,3,31,14,32,25,10,26,22,01,18,,,,1.8,1.0,1.5*3E
$GPRMC,224531.000,A,3257.5502,N,08009.2802,W,0.00,62.54,251117,,,A*43
$GPVTG,62.54,T,,M,0.00,N,0.0,K,A*38
$GPGGA,224532.000,3257.5502,N,08009.2802,W,1,09,1.0,-7.9,M,-32.2,M,,0000*43
$GPGSA,M,3,31,14,32,25,10,26,22,01,18,,,,1.8,1.0,1.5*3E
$GPRMC,224532.000,A,3257.5502,N,08009.2802,W,0.00,62.54,251117,,,A*40
$GPVTG,62.54,T,,M,0.00,N,0.0,K,A*38
$GPGGA,224533.000,3257.5502,N,08009.2802,W,1,09,1.0,-7.9,M,-32.2,M,,0000*42
$GPGSA,M,3,31,14,32,25,10,26,22,01,18,,,,1.8,1.0,1.5*3E
$GPRMC,224533.000,A,3257.5502,N,08009.2802,W,0.00,62.54,251117,,,A*41
$GPVTG,62.54,T,,M,0.00,N,0.0,K,A*38
$GPGGA,224534.000,3257.5502,N,08009.2802,W,1,09,1.0,-7.9,M,-32.2,M,,0000*45
$GPGSA,M,3,31,14,32,25,10,26,22,01,18,,,,1.8,1.0,1.5*3E
$GPGSV,3,1,12,31,70,297,25,14,63,015,28,32,58,061,31,25,36,055,36*76
$GPGSV,3,2,12,10,33,159,30,26,30,184,23,22,29,311,26,01,15,284,21*7B
$GPGSV,3,3,12,18,05,151,08,03,10,320,25,12,05,034,08,35,00,000,*70
$GPRMC,224534.000,A,3257.5502,N,08009.2802,W,0.00,62.54,251117,,,A*46
$GPVTG,62.54,T,,M,0.00,N,0.0,K,A*38
$GPGGA,224535.000,3257.5502,N,08009.2802,W,1,09,0.9,-7.9,M,-32.2,M,,0000*4C
$GPGSA,M,3,31,14,32,25,10,26,22,01,12,,,,1.5,0.9,1.3*37
$GPRMC,224535.000,A,3257.5502,N,08009.2802,W,0.00,62.54,251117,,,A*47
$GPVTG,62.54,T,,M,0.00,N,0.0,K,A*38
$GPGGA,224536.000,3257.5502,N,08009.2802,W,1,09,0.9,-7.8,M,-32.2,M,,0000*4E
$GPGSA,M,3,31,14,32,25,10,26,22,01,12,,,,1.5,0.9,1.3*37
$GPRMC,224536.000,A,3257.5502,N,08009.2802,W,0.00,62.54,251117,,,A*44
$GPVTG,62.54,T,,M,0.00,N,0.0,K,A*38
$GPGGA,224537.000,3257.5502,N,08009.2802,W,1,10,0.8,-7.8,M,-32.2,M,,0000*46
$GPGSA,M,3,31,14,32,25,10,26,22,01,12,18,,,1.4,0.8,1.1*3C
$GPRMC,224537.000,A,3257.5502,N,08009.2802,W,0.00,62.54,251117,,,A*45
$GPVTG,62.54,T,,M,0.00,N,0.0,K,A*38
$GPGGA,224538.000,3257.5502,N,08009.2802,W,1,10,0.8,-7.8,M,-32.2,M,,0000*49
$GPGSA,M,3,31,14,32,25,10,26,22,01,12,18,,,1.4,0.8,1.1*3C
$GPRMC,224538.000,A,3257.5502,N,08009.2802,W,0.00,62.54,251117,,,A*4A
$GPVTG,62.54,T,,M,0.00,N,0.0,K,A*38
$GPGGA,224539.000,3257.5502,N,08009.2802,W,1,10,0.8,-7.8,M,-32.2,M,,0000*48
$GPGSA,M,3,31,14,32,25,10,26,22,01,12,18,,,1.4,0.8,1.1*3C
$GPGSV,3,1,12,31,70,297,27,14,63,015,29,32,58,061,31,25,36,055,36*75
$GPGSV,3,2,12,10,33,159,30,26,30,184,25,22,29,311,27,01,15,284,22*7F
$GPGSV,3,3,12,12,05,034,12,18,05,151,09,03,10,320,26,35,00,000,*79
$GPRMC,224539.000,A,3257.5502,N,08009.2802,W,0.00,62.54,251117,,,A*4B
$GPVTG,62.54,T,,M,0.00,N,0.0,K,A*38
$GPGGA,224540.000,3257.5502,N,08009.2802,W,1,10,0.8,-7.8,M,-32.2,M,,0000*46
$GPGSA,M,3,31,14,32,25,10,26,22,01,12,18,,,1.4,0.8,1.1*3C
$GPRMC,224540.000,A,3257.5502,N,08009.2802,W,0.00,62.54,251117,,,A*45
$GPVTG,62.54,T,,M,0.00,N,0.0,K,A*38
$GPGGA,224541.000,3257.5502,N,08009.2802,W,1,10,0.8,-7.8,M,-32.2,M,,0000*47
$GPGSA,M,3,31,14,32,25,10,26,22,01,12,18,,,1.4,0.8,1.1*3C
$GPRMC,224541.000,A,3257.5502,N,08009.2802,W,0.00,62.54,251117,,,A*44
$GPVTG,62.54,T,,M,0.00,N,0.0,K,A*38
$GPGGA,224542.000,3257.5502,N,08009.2802,W,1,10,0.8,-7.8,M,-32.2,M,,0000*44
$GPGSA,M,3,31,14,32,25,10,26,22,01,12,18,,,1.4,0.8,1.1*3C
$GPRMC,224542.000,A,3257.5502,N,08009.2802,W,0.00,62.54,251117,,,A*47
$GPVTG,62.54,T,,M,0.00,N,0.0,K,A*38
$GPGGA,224543.000,3257.5502,N,08009.2802,W,1,10,0.8,-7.8,M,-32.2,M,,0000*45
$GPGSA,M,3,31,14,32,25,10,26,22,01,12,18,,,1.4,0.8,1.1*3C
$GPRMC,224543.000,A,3257.5502,N,08009.2802,W,0.00,62.54,251117,,,A*46
$GPVTG,62.54,T,,M,0.00,N,0.0,K,A*38
$GPGGA,224544.000,3257.5502,N,08009.2802,W,1,10,0.8,-7.8,M,-32.2,M,,0000*42
$GPGSA,M,3,31,14,32,25,10,26,22,01,12,18,,,1.4,0.8,1.1*3C
$GPGSV,3,1,12,31,70,297,27,14,63,015,29,32,58,061,26,25,36,055,36*73
$GPGSV,3,2,12,10,33,159,30,26,30,184,26,22,29,311,27,01,15,284,23*7D
$GPGSV,3,3,12,12,05,034,16,18,05,151,08,03,10,320,26,36,00,000,*7F
$GPRMC,224544.000,A,3257.5502,N,08009.2802,W,0.00,62.54,251117,,,A*41
$GPVTG,62.54,T,,M,0.00,N,0.0,K,A*38
$GPGGA,224545.000,3257.5502,N,08009.2802,W,1,09,0.9,-7.8,M,-32.2,M,,0000*4A
$GPGSA,M,3,31,14,32,25,10,26,22,01,12,,,,1.5,0.9,1.3*37
$GPRMC,224545.000,A,3257.5502,N,08009.2802,W,0.00,62.54,251117,,,A*40
$GPVTG,62.54,T,,M,0.00,N,0.0,K,A*38
$GPGGA,224546.000,3257.5502,N,08009.2802,W,1,09,0.9,-7.8,M,-32.2,M,,0000*49
$GPGSA,M,3,31,14,32,25,10,26,22,01,12,,,,1.5,0.9,1.3*37
$GPRMC,224546.000,A,3257.5502,N,08009.2802,W,0.00,62.54,251117,,,A*43
$GPVTG,62.54,T,,M,0.00,N,0.0,K,A*38
$GPGGA,224547.000,3257.5501,N,08009.2802,W,1,09,0.9,-7.8,M,-32.2,M,,0000*4B
$GPGSA,M,3,31,14,32,25,10,26,22,01,12,,,,1.5,0.9,1.3*37
$GPRMC,224547.000,A,3257.5501,N,08009.2802,W,0.00,62.54,251117,,,A*41
$GPVTG,62.54,T,,M,0.00,N,0.0,K,A*38
$GPGGA,224548.000,3257.5502,N,08009.2802,W,1,09,0.9,-7.8,M,-32.2,M,,0000*47
$GPGSA,M,3,31,14,32,25,10,26,22,01,12,,,,1.5,0.9,1.3*37
$GPRMC,224548.000,A,3257.5502,N,08009.2802,W,0.00,62.54,251117,,,A*4D
$GPVTG,62.54,T,,M,0.00,N,0.0,K,A*38
$GPGGA,224549.000,3257.5502,N,08009.2802,W,1,09,0.9,-7.8,M,-32.2,M,,0000*46
$GPGSA,M,3,31,14,32,25,10,26,22,01,12,,,,1.5,0.9,1.3*37
$GPGSV,3,1,12,31,70,297,19,14,63,015,29,32,58,061,27,25,36,055,35*7C
$GPGSV,3,2,12,10,33,159,30,26,30,184,26,22,29,311,27,01,15,284,24*7A
$GPGSV,3,3,12,12,05,034,16,03,10,320,26,18,05,151,06,36,00,000,*71
$GPRMC,224549.000,A,3257.5502,N,08009.2802,W,0.00,62.54,251117,,,A*4C
$GPVTG,62.54,T,,M,0.00,N,0.0,K,A*38
$GPGGA,224550.000,3257.5502,N,08009.2802,W,1,09,0.9,-7.8,M,-32.2,M,,0000*4E
$GPGSA,M,3,31,14,32,25,10,26,22,01,12,,,,1.5,0.9,1.3*37
$GPRMC,224550.000,A,3257.5502,N,08009.2802,W,0.00,62.54,251117,,,A*44
$GPVTG,62.54,T,,M,0.00,N,0.0,K,A*38
$GPGGA,224551.000,3257.5502,N,08009.2802,W,1,09,0.9,-7.8,M,-32.2,M,,0000*4F
$GPGSA,M,3,31,14,32,25,10,26,22,01,12,,,,1.5,0.9,1.3*37
$GPRMC,224551.000,A,3257.5502,N,08009.2802,W,0.00,62.54,251117,,,A*45
$GPVTG,62.54,T,,M,0.00,N,0.0,K,A*38
$GPGGA,224552.000,3257.5502,N,08009.2802,W,1,09,0.9,-7.8,M,-32.2,M,,0000*4C
$GPGSA,M,3,31,14,32,25,10,26,22,01,12,,,,1.5,0.9,1.3*37
$GPRMC,224552.000,A,3257.5502,N,08009.2802,W,0.00,62.54,251117,,,A*46
$GPVTG,62.54,T,,M,0.00,N,0.0,K,A*38
$GPGGA,224553.000,3257.5502,N,08009.2802,W,1,09,0.9,-7.8,M,-32.2,M,,0000*4D
$GPGSA,M,3,31,14,32,25,10,26,22,01,12,,,,1.5,0.9,1.3*37
$GPRMC,224553.000,A,3257.5502,N,08009.2802,W,0.00,62.54,251117,,,A*47
$GPVTG,62.54,T,,M,0.00,N,0.0,K,A*38
$GPGGA,224554.000,3257.5502,N,08009.2802,W,1,09,0.9,-7.8,M,-32.2,M,,0000*4A
$GPGSA,M,3,31,14,32,25,10,26,22,01,12,,,,1.5,0.9,1.3*37
$GPGSV,3,1,12,31,70,297,23,14,63,015,29,32,58,061,28,25,36,055,34*7B
$GPGSV,3,2,12,10,33,159,30,26,30,184,26,22,29,311,26,01,15,284,24*7B
$GPGSV,3,3,12,12,05,034,16,03,10,320,25,18,05,151,08,36,00,000,*7C
$GPRMC,224554.000,A,3257.5502,N,08009.2802,W,0.00,62.54,251117,,,A*40
$GPVTG,62.54,T,,M,0.00,N,0.0,K,A*38
$GPGGA,224555.000,3257.5502,N,08009.2802,W,1,09,0.9,-7.8,M,-32.2,M,,0000*4B
$GPGSA,M,3,31,14,32,25,10,26,22,01,12,,,,1.5,0.9,1.3*37
$GPRMC,224555.000,A,3257.5502,N,08009.2802,W,0.00,62.54,251117,,,A*41
$GPVTG,62.54,T,,M,0.00,N,0.0,K,A*38
$GPGGA,224556.000,3257.5502,N,08009.2802,W,1,09,0.9,-7.8,M,-32.2,M,,0000*48
$GPGSA,M,3,31,14,32,25,10,26,22,01,12,,,,1.5,0.9,1.3*37
$GPRMC,224556.000,A,3257.5502,N,08009.2802,W,0.00,62.54,251117,,,A*42
$GPVTG,62.54,T,,M,0.00,N,0.0,K,A*38
$GPGGA,224557.000,3257.5502,N,08009.2802,W,1,09,0.9,-7.8,M,-32.2,M,,0000*49
$GPGSA,M,3,31,14,32,25,10,26,22,01,12,,,,1.5,0.9,1.3*37
$GPRMC,224557.000,A,3257.5502,N,08009.2802,W,0.00,62.54,251117,,,A*43
$GPVTG,62.54,T,,M,0.00,N,0.0,K,A*38
$GPGGA,224558.000,3257.5502,N,08009.2802,W,1,09,0.9,-7.8,M,-32.2,M,,0000*46
$GPGSA,M,3,31,14,32,25,10,26,22,01,12,,,,1.5,0.9,1.3*37
$GPRMC,224558.000,A,3257.5502,N,08009.2802,W,0.00,62.54,251117,,,A*4C
$GPVTG,62.54,T,,M,0.00,N,0.0,K,A*38
$GPGGA,224559.000,3257.5502,N,08009.2802,W,1,09,0.9,-7.7,M,-32.2,M,,0000*48
$GPGSA,M,3,31,14,32,25,10,26,22,01,12,,,,1.5,0.9,1.3*37
$GPGSV,3,1,12,31,70,297,24,14,63,015,30,32,58,061,29,25,36,055,29*79
$GPGSV,3,2,12,10,33,159,29,26,30,184,26,22,29,311,22,01,15,284,24*77
$GPGSV,3,3,12,12,05,034,16,03,10,320,25,18,05,151,08,36,00,000,*7C
$GPRMC,224559.000,A,3257.5502,N,08009.2802,W,0.00,62.54,251117,,,A*4D
$GPVTG,62.54,T,,M,0.00,N,0.0,K,A*38
$GPGGA,224600.000,3257.5502,N,08009.2802,W,1,10,0.8,-7.7,M,-32.2,M,,0000*4E
$GPGSA,M,3,31,14,32,25,10,26,22,01,12,18,,,1.4,0.8,1.1*3C
$GPRMC,224600.000,A,3257.5502,N,08009.2802,W,0.00,62.54,251117,,,A*42
$GPVTG,62.54,T,,M,0.00,N,0.0,K,A*38
$GPGGA,224601.000,3257.5502,N,08009.2802,W,1,09,0.9,-7.7,M,-32.2,M,,0000*46
$GPGSA,M,3,31,14,32,25,10,26,22,01,12,,,,1.5,0.9,1.3*37
$GPRMC,224601.000,A,3257.5502,N,08009.2802,W,0.00,62.54,251117,,,A*43
$GPVTG,62.54,T,,M,0.00,N,0.0,K,A*38
$GPGGA,224602.000,3257.5502,N,08009.2802,W,1,09,0.9,-7.7,M,-32.2,M,,0000*45
$GPGSA,M,3,31,14,32,25,10,26,22,01,12,,,,1.5,0.9,1.3*37
$GPRMC,224602.000,A,3257.5502,N,08009.2802,W,0.00,62.54,251117,,,A*40
$GPVTG,62.54,T,,M,0.00,N,0.0,K,A*38
$GPGGA,224603.000,3257.5502,N,08009.2802,W,1,09,0.9,-7.7,M,-32.2,M,,0000*44
$GPGSA,M,3,31,14,32,25,10,26,22,01,12,,,,1.5,0.9,1.3*37
$GPRMC,224603.000,A,3257.5502,N,08009.2802,W,0.00,62.54,251117,,,A*41
$GPVTG,62.54,T,,M,0.00,N,0.0,K,A*38
$GPGGA,224604.000,3257.5502,N,08009.2803,W,1,09,0.9,-7.5,M,-32.2,M,,0000*40
$GPGSA,M,3,31,14,32,25,10,26,22,01,12,,,,1.5,0.9,1.3*37
$GPGSV,3,1,12,31,70,297,30,14,63,015,30,32,58,061,31,25,36,055,29*75
$GPGSV,3,2,12,10,33,159,29,26,30,184,22,22,29,311,21,01,15,284,24*70
$GPGSV,3,3,12,12,05,034,16,03,10,320,20,18,05,151,06,36,00,000,*77
$GPRMC,224604.000,A,3257.5502,N,08009.2803,W,0.11,62.54,251117,,,A*47
$GPVTG,62.54,T,,M,0.11,N,0.2,K,A*3A
$GPGGA,224605.000,3257.5502,N,08009.2803,W,1,09,0.9,-7.5,M,-32.2,M,,0000*41
$GPGSA,M,3,31,14,32,25,10,26,22,01,12,,,,1.5,0.9,1.3*37
$GPRMC,224605.000,A,3257.5502,N,08009.2803,W,0.00,62.54,251117,,,A*46
$GPVTG,62.54,T,,M,0.00,N,0.0,K,A*38
$GPGGA,224606.000,3257.5502,N,08009.2803,W,1,09,0.9,-7.5,M,-32.2,M,,0000*42
$GPGSA,M,3,31,14,32,25,10,26,22,01,12,,,,1.5,0.9,1.3*37
$GPRMC,224606.000,A,3257.5502,N,08009.2803,W,0.00,62.54,251117,,,A*45
$GPVTG,62.54,T,,M,0.00,N,0.0,K,A*38
$GPGGA,224607.000,3257.5502,N,08009