DateTime, Latitude, Longitude, Temp, Humidity, Pressure, Yaw, Pitch, Roll, MagX, MagY, MagZ, AccX, AccY, AccZ, GyroX, GyroY, GyroZ, State
42:03.6,,,33.302,37.045,1018.872,171.709904,347.896521,5.735661,-5.422262,1.581421,33.805347,0.186683,0.051715,0.918493,-0.232957,-0.088266,0.018616,standing
42:03.9,32.90815949,-80.10055561,33.231,37.148,1018.865,172.784716,347.495284,4.372864,-10.698288,3.098655,68.779152,0.263054,0.044188,0.873653,-0.067204,0.022742,0.147437,standing
42:04.0,32.90815949,-80.10055561,33.266,37.361,1018.873,172.994458,348.075652,5.30217,-12.786705,4.034654,82.798531,0.171409,0.003885,0.972107,0.453559,-0.104623,-0.21725,standing
42:04.2,32.90815949,-80.10055561,33.337,37.7,1018.871,174.887349,347.42842,4.700155,-13.396505,6.37551,87.651169,0.236385,0.045888,0.875115,-0.224807,0.018161,0.013657,standing
42:04.4,32.90815949,-80.10055561,33.337,37.371,1018.889,175.472163,345.944486,4.110201,-12.200661,8.769547,87.554382,0.260629,0.040061,0.818578,-0.055061,-0.024005,-0.127858,standing
42:04.5,32.90815865,-80.10054507,33.32,37.079,1018.893,175.971819,347.525771,5.090227,-11.205194,10.674492,86.593666,0.20026,0.093475,0.925317,0.000222,0.202626,-0.011793,walking
42:04.7,32.90815865,-80.10054507,33.337,37.218,1018.879,178.584093,347.485445,4.400782,-11.436671,11.679115,85.513,0.221838,0.04346,0.919712,0.123311,-0.030113,0.219724,walking
42:04.9,32.90815865,-80.10054507,33.337,37.318,1018.867,181.172096,347.386419,5.017436,-11.800283,12.165601,85.83976,0.263781,0.083278,0.816628,0.120677,-0.044997,-0.051381,walking
42:05.0,32.90815865,-80.10054507,33.302,37.388,1018.865,179.91363,346.451814,6.302298,-12.185798,12.52812,86.249466,0.278085,0.035205,1.017678,0.21139,-0.231311,-0.369642,walking
42:05.2,32.90815865,-80.10054507,33.373,37.281,1018.853,178.461464,349.54735,7.876697,-13.036963,12.450783,86.725639,0.134073,0.144947,0.817847,0.182985,0.428424,-0.14576,walking
42:05.3,32.90815109,-80.10054507,33.266,37.185,1018.844,179.205244,353.128624,7.267415,-14.739322,12.669427,85.962845,0.080977,0.102216,1.023039,-0.201249,0.173998,0.156924,walking
42:05.5,32.90815109,-80.10054507,33.462,37.58,1018.826,182.212894,353.585796,6.406153,-16.110777,13.28103,86.10955,0.217232,0.143733,0.88072,0.131062,-0.165337,0.135238,walking
42:05.7,32.90815109,-80.10054507,33.355,36.949,1018.833,179.818964,350.20909,9.735879,-15.455947,13.757427,86.643036,0.282692,0.272656,0.863174,0.146639,-0.459469,-0.274347,walking
42:05.8,32.90815109,-80.10054507,33.355,37.743,1018.822,177.135273,349.324641,12.726083,-14.515613,14.957688,88.000809,0.161469,0.360304,0.90046,0.34914,0.095197,-0.067264,walking
42:06.0,32.90815109,-80.10054507,33.178,37.211,1018.829,175.181389,349.572039,15.738991,-14.095669,17.110283,89.122047,0.406582,0.428529,0.831006,0.385487,-0.038277,0.129435,walking
42:06.2,32.90815109,-80.10054507,33.266,37.278,1018.837,165.432113,348.172988,19.448552,-12.205337,18.574286,92.132759,0.241719,0.40692,0.92093,0.167103,0.177663,-0.354981,walking
42:06.3,32.90815109,-80.10054507,33.018,37.394,1018.841,162.441542,343.852067,18.723915,-9.380554,16.450926,92.8778,0.16947,0.031806,0.75278,-0.634964,0.060072,-0.693706,walking
42:06.5,32.90815109,-80.10054507,33.107,37.311,1018.851,158.290208,347.289853,16.114966,-10.494677,12.408836,91.513084,0.179895,0.165099,0.877309,-0.257754,0.027085,-0.97165,walking
42:06.7,32.90815109,-80.10054507,33,37.676,1018.858,151.092828,352.205644,13.636065,-13.541812,7.798337,89.508255,0.022063,0.147375,0.899972,-0.331669,0.188659,-1.331144,walking
42:06.8,32.90815109,-80.10054507,33.124,37.57,1018.857,140.007021,355.526903,12.269967,-16.05855,3.425293,88.498314,0.12195,0.243278,1.010367,-0.094042,-0.333325,-1.446597,walking
42:07.0,32.90815109,-80.10054507,33.053,37.049,1018.854,132.626974,356.274054,11.074524,-16.624884,-0.879849,88.226814,0.140861,0.059727,0.978199,-0.315481,-0.127769,-1.102986,walking
42:07.2,32.90815109,-80.10054507,33.142,37.467,1018.866,127.246534,356.229829,13.380486,-15.955777,-4.912785,88.799149,0.077583,0.035933,0.792015,0.319513,-0.767651,-0.727609,walking
42:07.3,32.90814625,-80.1005469,33.142,36.909,1018.864,122.680484,354.279891,11.884207,-13.684965,-7.911543,89.300789,0.16753,0.105129,0.856838,-0.559216,-0.439616,-0.67202,walking
42:07.5,32.90814625,-80.1005469,33.124,37.029,1018.867,118.927363,354.401302,9.165267,-10.433952,-10.741469,89.505997,0.137224,0.004856,0.94725,0.052565,0.07962,-0.701647,walking
42:07.7,32.90814625,-80.1005469,33.124,36.667,1018.866,118.594979,354.598407,8.174204,-7.947561,-13.376868,88.964806,0.099645,0.024279,0.993796,-0.068615,-0.207045,-0.263427,walking
42:07.9,32.90814625,-80.1005469,33,37.328,1018.867,118.501624,353.061855,9.472757,-5.871617,-15.126441,88.526566,0.104494,0.111927,0.752292,0.190087,-0.160008,0.246645,walking
42:08.0,32.90814625,-80.1005469,32.965,36.893,1018.875,122.413287,351.648581,11.240114,-4.060491,-15.382801,88.786446,0.073946,0.117269,0.915325,0.329975,-0.074487,0.734727,walking
42:08.2,32.90814625,-80.1005469,33.018,37.172,1018.875,124.731289,350.264414,8.326762,-3.471624,-14.805497,89.11087,0.110798,0.128437,1.006955,-0.412226,-0.144126,0.191362,walking
42:08.4,32.90814625,-80.1005469,33.053,37.168,1018.876,126.479872,348.817321,8.233031,-2.920047,-14.950791,88.849937,0.124617,0.100516,0.86025,0.300959,-0.182916,0.17609,walking
42:08.5,32.90814625,-80.1005469,33.124,37.085,1018.875,128.956348,350.265865,11.350269,-2.270153,-14.202263,88.921509,0.157347,0.000243,1.072266,0.117088,0.836313,0.912183,walking
42:08.7,32.90814625,-80.1005469,33.071,36.102,1018.879,141.347732,352.848129,11.102916,-4.037073,-12.089886,89.546387,0.263539,0.00607,0.952124,0.328142,0.553482,1.193486,walking
42:08.9,32.90814625,-80.1005469,33.035,36.607,1018.881,152.667036,352.98883,12.547752,-8.062847,-9.489193,89.855156,0.171894,0.128923,0.821989,0.384647,0.350064,0.797951,walking
42:09.0,32.90814625,-80.1005469,32.982,36.444,1018.881,161.485753,353.502233,13.616851,-12.322836,-6.356091,89.536621,0.115162,0.171169,0.899485,0.154962,0.138705,1.047795,walking
42:09.2,32.90814625,-80.1005469,32.982,36.8,1018.872,171.176903,353.342472,14.199612,-15.750024,-3.042472,89.783478,0.053338,0.181123,1.106871,-0.366106,0.536378,1.95829,walking
42:09.4,32.90814625,-80.1005469,33.018,36.431,1018.874,183.439391,351.360995,14.303334,-18.331318,0.982127,88.545891,0.010183,0.02695,0.856351,0.293018,-0.128243,1.293668,walking
42:09.5,32.90814625,-80.1005469,33.213,35.375,1018.872,192.021565,347.515303,13.044316,-19.436226,5.947559,87.797981,0.130678,0.214871,0.67504,-0.015469,-0.286457,1.051766,walking
42:09.7,32.90814625,-80.1005469,33,37.062,1018.863,196.798586,344.471423,9.965809,-18.322838,9.617109,87.854362,0.184744,0.197148,1.08372,-0.08633,0.109078,0.57468,walking
42:09.9,32.90814541,-80.10053636,33.035,37.029,1018.859,205.263745,350.253445,4.638984,-16.886662,12.089783,88.312325,0.21117,-0.157521,1.339358,0.565769,-0.029283,-0.010224,walking
42:10.1,32.90814541,-80.10053636,33.089,36.424,1018.852,208.19966,352.029846,8.412003,-16.384361,14.207494,87.689484,0.168742,0.038604,0.811267,0.385869,-0.385723,-0.080168,walking
42:10.2,32.90814541,-80.10053636,32.947,36.773,1018.854,206.351807,350.06174,11.154824,-15.339368,16.646729,87.308151,0.242203,0.27387,0.752536,-0.013213,-0.320754,0.177723,walking
42:10.4,32.90814541,-80.10053636,33,37.447,1018.85,203.086663,347.358834,13.860773,-13.838079,17.807152,87.762268,0.207776,0.273142,1.110039,0.438522,-0.398028,0.024701,walking
42:10.6,32.90814541,-80.10053636,32.965,36.703,1018.845,199.68333,346.369036,18.483472,-11.841307,18.569136,87.877914,0.193472,0.303734,0.699654,0.412561,-0.00738,-0.077619,walking
42:10.7,32.90814541,-80.10053636,32.858,36.65,1018.847,195.408956,345.971661,20.75147,-11.143682,19.56777,86.797699,0.244385,0.235023,0.548562,-0.055068,0.134727,-0.006068,walking
42:10.9,32.90814541,-80.10053636,32.982,36.404,1018.854,193.608259,346.758744,16.025774,-11.322271,19.94326,87.566353,0.144498,0.183308,0.915325,-0.353476,0.308213,-0.122743,walking
42:11.1,32.90814541,-80.10053636,32.84,36.547,1018.862,192.474543,350.924178,11.041144,-12.121119,18.941572,87.989861,0.21311,0.061669,1.397845,-1.244728,0.784382,-0.026532,walking
42:11.2,32.90814541,-80.10053636,32.734,36.172,1018.872,194.173744,356.957519,5.844954,-14.660127,16.81517,88.09697,0.067642,0.046373,0.979905,-0.060872,-0.007605,0.050437,walking
42:11.4,32.90815298,-80.10053636,32.822,36.863,1018.869,195.233803,357.499542,6.800432,-16.298603,15.041291,88.227654,0.198806,0.168984,0.758872,0.068021,0.124037,0.151841,walking
42:11.6,32.90815298,-80.10053636,32.858,36.441,1018.866,196.452609,357.86989,9.987979,-16.505957,14.674548,87.964386,0.091645,0.102701,1.058619,0.397583,0.095631,0.221785,walking
42:11.7,32.90815298,-80.10053636,32.805,36.524,1018.868,203.611959,1.324648,8.17829,-16.703152,15.675894,87.068085,-0.060228,-0.093113,1.153661,0.609248,-0.164597,0.113356,walking
42:11.9,32.90815298,-80.10053636,32.698,36.431,1018.871,206.912361,0.177748,7.011751,-16.4069,16.859674,86.668381,0.062066,0.151988,0.677965,-0.432583,-0.375651,0.159477,walking
42:12.1,32.90815298,-80.10053636,32.805,36.903,1018.875,204.619958,1.769312,5.73112,-16.37516,16.803711,87.041977,0.133103,0.252504,0.840754,-0.082863,0.441687,-0.040887,walking
42:12.2,32.90815298,-80.10053636,32.947,36.514,1018.872,199.256361,359.085853,5.03667,-17.163486,16.659937,87.017723,0.216262,0.050258,1.496055,-0.300636,0.521405,0.322883,walking
42:12.4,32.90815298,-80.10053636,32.751,36.418,1018.866,200.40513,358.89797,5.418565,-17.637671,17.039486,86.137703,-0.015304,0.035691,0.787872,0.379868,0.219332,0.014702,walking
42:12.6,32.90815298,-80.10053636,32.982,36.713,1018.863,201.58454,358.405444,7.038234,-17.805069,17.2806,85.322708,0.038549,0.161214,0.679914,0.327333,0.041875,0.016229,walking
42:12.7,32.90815298,-80.10053636,32.858,36.434,1018.863,200.705905,357.672477,9.947587,-18.260386,18.203104,85.078964,0.195654,0.242307,1.019384,-0.375162,0.069975,0.212317,walking
42:12.9,32.90815214,-80.10052583,32.947,36.375,1018.881,193.67111,352.988953,14.614446,-17.437632,18.392071,85.421402,0.087765,0.234538,0.635561,-0.114017,-0.253783,-0.01462,walking
42:13.1,32.90815214,-80.10052583,32.965,36.401,1018.878,189.482292,348.974266,14.225489,-15.757689,18.042219,86.02755,0.190078,0.098088,0.671872,0.069854,-0.182618,-0.223841,walking
42:13.2,32.90815214,-80.10052583,32.911,36.022,1018.889,187.226417,346.748034,13.060059,-14.221887,17.035109,87.013199,0.128496,0.177239,0.950661,0.090318,-0.277913,-0.490484,walking
42:13.4,32.90815214,-80.10052583,32.805,36.228,1018.888,187.429082,351.107814,9.752626,-13.939878,15.759424,87.543655,0.09019,0.02695,1.055451,0.339856,-0.392755,-0.993226,walking
42:13.6,32.90815214,-80.10052583,32.822,36.228,1018.886,187.523134,351.492611,8.525211,-13.996261,14.180339,88.293571,0.15759,0.025493,0.649452,0.124221,-0.248897,-0.394273,walking
42:13.7,32.90815214,-80.10052583,32.911,36.394,1018.886,186.147466,349.931968,8.022491,-13.459683,13.102454,88.307068,0.234203,0.206859,0.848552,0.048536,-0.143208,0.11706,walking
42:13.9,32.90815214,-80.10052583,32.893,36.384,1018.881,187.998106,348.823384,8.26846,-12.831499,12.845056,88.369133,0.253356,0.006798,1.31377,-0.533924,0.123435,0.673864,walking
42:14.1,32.90815214,-80.10052583,32.947,36.235,1018.881,195.057489,352.54086,5.361372,-11.932049,13.259721,88.538261,0.055278,0.000243,1.0033,0.10779,0.026613,0.265501,walking
42:14.2,32.90815214,-80.10052583,32.911,36.285,1018.881,196.069176,352.880513,6.47949,-11.229911,13.617286,88.661423,0.055278,0.238908,0.708914,0.179423,0.056482,0.264215,walking
42:19.0,32.9081429,-80.10050475,32.521,35.993,1018.922,205.73093,358.475938,343.08183,-16.808481,10.843254,93.218811,0.073946,-0.033048,0.928729,-0.180376,0.086415,0.053772,go_up
42:19.2,32.9081429,-80.10050475,32.521,36.089,1018.92,205.540094,359.351527,343.453515,-23.143354,7.559637,97.720497,0.061824,-0.040767,0.957485,0.014847,0.105983,0.010526,go_up
42:19.4,32.9081429,-80.10050475,32.627,35.803,1018.923,205.346813,359.563259,344.825553,-26.048414,6.287164,98.55146,0.073946,-0.045833,0.90972,0.018067,0.029345,0.084336,go_up
42:19.5,32.90814206,-80.10049421,32.716,35.574,1018.929,205.85502,356.38271,344.160122,-26.066105,6.221264,98.82386,0.030063,-0.077434,0.951149,-0.114797,-0.581215,-0.033866,go_up
42:19.7,32.90814206,-80.10049421,32.556,36.288,1018.918,208.989476,354.475741,344.443935,-22.89315,6.74553,99.486298,0.11201,-0.029671,0.870729,0.062965,0.012852,0.372665,go_up
42:19.9,32.90814206,-80.10049421,32.698,36.285,1018.913,211.124061,1.107539,343.139241,-20.536842,7.493827,99.20562,0.048247,-0.079363,1.013291,-0.130068,0.788651,0.555924,go_up
42:20.0,32.90814206,-80.10049421,32.627,35.84,1018.922,214.760358,5.557872,342.547688,-20.99143,8.688266,97.256935,0.04364,-0.075504,0.976006,-0.055543,0.147548,0.475901,go_up
42:20.2,32.90814206,-80.10049421,32.609,35.66,1018.924,218.108352,6.533836,343.068642,-21.295351,9.962313,95.364807,0.091887,-0.077916,0.957241,-0.023472,0.0718,0.204066,go_up
42:20.4,32.90814206,-80.10049421,32.68,36.458,1018.933,216.227373,5.394148,345.356052,-21.470255,11.290357,94.07119,0.136739,-0.040043,1.017191,0.369925,-0.240657,-0.352433,go_up
42:20.6,32.90814206,-80.10049421,32.68,34.794,1018.933,210.16375,359.733567,350.406956,-21.905069,12.252113,94.149109,0.140376,-0.038837,0.850746,0.336938,-0.48592,-0.988954,go_up
42:20.7,32.90814206,-80.10049421,32.698,36.013,1018.929,202.387142,358.244556,351.703116,-20.693956,12.535021,95.759094,0.076613,0.089105,1.004031,-0.146562,0.073633,-0.471551,go_up
42:20.9,32.90814206,-80.10049421,32.574,34.893,1018.931,196.18727,357.967197,355.158553,-19.601665,12.379701,97.045258,0.21311,0.209287,0.910451,0.314642,-0.139865,-0.214377,go_up
42:21.1,32.90814206,-80.10049421,32.432,35.85,1018.935,191.766813,351.770812,359.366389,-17.724216,12.676416,98.580292,0.194927,0.235509,0.968451,0.205297,-0.613896,-0.051276,go_up
42:21.2,32.90814206,-80.10049421,32.343,36.245,1018.931,186.104886,347.865166,5.024199,-13.931071,15.373987,99.874565,0.137709,0.107072,0.837342,0.178113,-0.263259,-0.585783,go_up
42:21.4,32.90814206,-80.10049421,32.361,36.149,1018.924,178.395375,344.214209,8.410943,-11.787374,18.597462,99.431046,0.143528,0.292565,0.650183,-0.004841,-0.262648,-0.539968,go_up
42:21.6,32.90814206,-80.10049421,32.201,35.328,1018.918,170.759292,342.911166,10.535347,-10.989699,21.399137,97.507179,0.14474,0.213657,0.824426,-0.026221,-0.184763,-0.553713,go_up
42:21.8,32.90814206,-80.10049421,32.201,35.836,1018.909,175.074769,349.71012,4.715446,-12.300919,23.234753,95.116478,0.210686,-0.052346,1.079577,-0.032941,0.518037,-0.08915,go_up
42:21.9,32.90814689,-80.10049238,32.201,36.58,1018.905,175.96085,355.01635,1.652127,-15.636053,24.376776,92.221001,0.15565,0.208073,0.860494,-0.470626,0.507958,-0.048527,go_up
42:22.1,32.90814689,-80.10049238,32.254,35.717,1018.908,176.368653,358.701368,0.078192,-17.786327,24.349018,89.516266,0.116616,0.167527,0.932384,-0.084864,0.236734,0.019279,go_up
42:22.3,32.90814689,-80.10049238,32.272,36.072,1018.913,179.300361,358.347079,2.296228,-18.565556,23.691322,86.910164,0.099403,0.126495,1.073241,-0.164888,0.066302,0.826537,go_up
42:22.4,32.90813933,-80.10049238,32.396,35.597,1018.91,187.05793,355.906247,3.571124,-16.804745,23.856606,85.589783,-0.02888,-0.058135,0.883888,-0.127319,0.025069,0.810044,go_up
42:22.6,32.90813933,-80.10049238,32.432,35.906,1018.911,197.915759,352.576976,2.851289,-13.347755,24.036236,85.077171,0.049944,0.107314,0.686494,0.329608,0.023542,0.814626,go_up
42:22.8,32.90813933,-80.10049238,32.414,35.7,1018.913,206.358924,353.253949,4.021849,-9.344771,24.574724,84.844696,0.096736,0.108285,0.940913,0.325332,0.196111,0.689398,go_up
42:22.9,32.90813933,-80.10049238,32.45,35.956,1018.923,213.148023,358.11165,1.099698,-6.505404,25.436735,84.514023,0.093827,-0.177542,1.346913,0.120997,0.64357,0.54218,go_up
42:23.1,32.90813933,-80.10049238,32.432,35.807,1018.923,224.867098,359.532932,359.245359,-5.179047,25.296881,84.393753,0.016729,0.068953,0.747175,-0.026527,-0.282807,0.812793,go_up
42:23.3,32.90813933,-80.10049238,32.325,36.278,1018.934,236.111652,358.508719,359.689157,-2.341386,24.451075,83.158745,0.118314,0.096874,0.88462,0.117332,-0.211947,1.06508,go_up
42:23.4,32.90812693,-80.10049421,32.308,35.7,1018.941,245.287997,357.272179,359.328302,1.634388,23.645729,83.181175,0.24487,-0.071403,1.232375,-0.449856,0.464281,0.751401,go_up
42:23.6,32.90812693,-80.10049421,32.343,35.714,1018.94,253.509209,2.257571,356.434399,4.035555,22.896255,82.630821,-0.031101,-0.134604,0.99867,-0.238191,0.544304,0.642667,go_up
42:23.8,32.90812693,-80.10049421,32.414,36.268,1018.938,257.112537,3.82761,357.230855,5.295035,21.848835,81.488838,0.01091,0.190107,0.684545,0.349766,0.080658,0.053182,go_up
42:23.9,32.90812693,-80.10049421,32.308,35.381,1018.939,261.952348,7.093557,2.126038,6.182563,21.144493,80.936043,0.109586,0.171412,1.119056,0.766682,-0.375353,-0.92573,go_up
42:24.1,32.90812693,-80.10049421,32.361,35.966,1018.943,253.359621,4.963952,8.064317,6.131941,21.390684,80.731911,0.150074,0.253475,0.860981,-0.029886,-0.751646,-0.362817,go_up
42:24.3,32.90812693,-80.10049421,32.272,35.554,1018.952,245.48444,2.201697,9.024428,5.382754,21.857731,80.560516,0.161469,0.103915,0.629225,0.138102,-0.161245,-0.341132,go_up
42:24.4,32.90812693,-80.10049421,32.166,35.886,1018.956,241.00592,1.364223,8.682255,5.159731,21.567829,80.222412,0.154438,0.07915,1.048384,0.333578,0.266055,-0.125496,go_up
42:24.6,32.90812693,-80.10049421,32.095,35.767,1018.952,241.972214,2.865045,7.194196,4.510565,21.878672,79.665184,-0.003209,0.003885,1.17535,0.467358,-0.360387,-0.850593,go_up
42:24.8,32.90812693,-80.10049421,31.988,35.385,1018.951,241.558236,0.897607,6.330067,3.530153,21.728962,80.318336,0.113707,0.112656,0.720855,-0.334097,-0.484393,-0.34724,go_up
42:24.9,32.90812209,-80.10049604,32.006,36.086,1018.949,236.194639,359.245052,4.597948,2.86714,20.950159,80.507889,0.118314,0.125281,0.836368,-0.35731,0.029956,-0.474606,go_up
42:25.1,32.90812209,-80.10049604,31.988,35.631,1018.955,230.547862,0.540699,359.580914,1.585418,20.431091,80.963554,0.351062,-0.175854,1.339602,-0.733298,1.051628,0.066316,go_up
42:25.3,32.90812209,-80.10049604,32.183,35.943,1018.953,224.74033,0.568696,355.113033,-1.261667,19.435093,82.108528,0.205594,0.023551,0.854401,-0.068982,0.148769,-0.252556,go_up
42:25.5,32.90811453,-80.10049604,32.148,35.734,1018.948,220.415686,358.529912,353.285361,-4.095156,18.238291,83.535812,0.124375,0.029378,0.853183,0.193079,-0.122455,-0.538746,go_up
42:25.6,32.90811453,-80.10049604,32.148,35.631,1018.941,214.736315,357.250683,355.069953,-5.964751,18.183863,84.357315,0.167045,0.210987,1.008661,-0.373193,0.217797,0.011949,go_up
42:28.1,32.90810129,-80.10048733,32.29,35.916,1018.972,248.740829,53.488161,274.527778,-12.937142,18.231766,84.194092,0.064733,-0.245327,1.293543,0.039447,-0.324957,0.016836,go_up
42:28.2,32.90810129,-80.10048733,32.29,35.647,1018.967,252.980635,50.60856,282.384818,-18.704494,17.984295,83.683907,0.006546,0.035448,0.86488,0.195218,-0.606566,-0.184139,go_up
42:28.4,32.90809372,-80.10048733,32.059,34.445,1018.975,253.244191,43.022002,291.505572,-20.106869,18.173176,84.555878,0.064733,0.136692,0.822721,-0.096351,-0.20388,-0.036901,go_up
42:28.6,32.90809372,-80.10048733,32.059,35.856,1018.984,246.063572,34.066812,299.167494,-20.179609,18.247431,84.210236,0.275903,0.220941,1.008905,-0.071305,0.872159,-0.244289,go_up
42:28.8,32.90809372,-80.10048733,32.112,35.531,1018.996,236.032026,28.5184,299.632787,-22.273319,19.700907,82.611389,0.070309,0.096146,1.027913,-0.013273,0.291226,0.31679,go_up
42:28.9,32.90809372,-80.10048733,32.166,35.81,1018.998,235.529966,26.12114,306.30582,-24.249943,20.565632,81.543213,0.069582,0.146404,0.675528,0.094757,-0.175228,-0.037181,go_up
42:29.1,32.90809372,-80.10048733,32.325,35.621,1018.991,235.066469,20.117532,311.809252,-23.619219,21.118103,81.885139,0.103524,0.224098,0.991846,0.110029,-0.329166,-0.030462,go_up
42:29.3,32.90809372,-80.10048733,32.13,35.694,1018.995,234.905441,13.621307,318.008147,-22.108889,20.712687,83.261314,0.072734,0.117512,0.840754,-0.046775,0.050238,0.074554,go_up
42:29.4,32.90809289,-80.10047679,32.219,35.587,1018.994,234.684607,9.37975,321.194854,-20.431635,20.124485,85.089455,0.127284,0.132322,0.667973,0.052913,0.005008,0.151843,go_up
42:29.6,32.90809289,-80.10047679,31.988,35.654,1018.993,233.4346,4.967849,324.282099,-18.981745,19.681301,86.032967,0.153953,0.144219,0.96772,0.148925,-0.054663,-0.106893,go_up
42:29.8,32.90809289,-80.10047679,32.13,36.086,1019,230.427732,6.878555,326.167276,-17.624819,19.759188,86.319962,0.25966,-0.115788,1.238467,0.859056,0.250769,-0.376284,go_up
42:29.9,32.90809289,-80.10047679,32.166,35.929,1018.987,229.339806,4.844393,330.207688,-17.17621,20.519659,85.964592,0.184501,0.115084,0.620696,0.134472,0.000155,0.096869,go_up
42:30.1,32.90809289,-80.10047679,32.254,35.511,1018.982,225.828297,2.856675,332.970216,-16.513784,20.942421,84.59951,0.136982,0.237451,0.832712,-0.056729,-0.025501,0.258137,go_up
42:30.3,32.90809289,-80.10047679,32.041,35.777,1018.985,226.277805,2.498387,335.178946,-15.584929,21.783484,84.742081,0.184986,0.075023,1.338627,-1.057021,0.119884,0.915734,go_up
42:30.5,32.90809289,-80.10047679,32.166,36.328,1018.984,226.822403,4.469638,336.008083,-13.927948,22.117924,84.914742,0.118071,-0.032083,0.947006,0.004663,0.251221,0.010431,go_up
42:30.6,32.90809289,-80.10047679,32.112,35.92,1019.001,223.709995,2.790687,338.647669,-13.478338,22.194004,84.40448,0.112737,0.152231,0.684788,-0.078415,0.014205,-0.545151,go_up
42:30.8,32.90809289,-80.10047679,32.077,35.584,1019.002,216.733722,359.672998,339.909444,-13.224171,21.758114,84.283348,0.172379,0.244007,1.039611,0.099653,0.061241,-0.451994,go_up
42:30.9,32.90809205,-80.10046626,32.112,35.939,1019.001,213.354882,359.123441,341.758122,-13.278016,20.97901,84.969223,0.284147,0.084006,1.071535,0.305514,-0.213342,-0.375025,go_up
42:31.1,32.90809205,-80.10046626,32.024,34.936,1019.007,210.879936,354.347363,345.063539,-13.549863,20.32831,85.122856,0.241476,0.104644,0.589015,0.257256,-0.051463,-0.342954,go_up
42:31.3,32.90809205,-80.10046626,32.148,35.986,1019.011,208.44272,351.443942,349.726464,-13.031516,20.038034,85.198883,0.193472,0.2156,0.80225,0.308569,-0.029167,0.236757,go_up
42:31.4,32.90807881,-80.10045755,31.97,35.743,1019.021,209.679284,353.079982,352.311393,-11.701003,20.671923,85.090332,0.219656,0.109257,1.429769,-0.987993,0.2894,0.95544,go_up
42:31.6,32.90807881,-80.10045755,32.077,35.79,1019.02,211.888523,355.634882,350.419721,-11.20165,20.982613,85.167076,0.138194,0.084006,0.86951,-0.315736,0.193799,0.20713,go_up
42:31.8,32.90807881,-80.10045755,32.024,34.976,1019.023,210.013035,354.771839,350.979114,-11.069624,21.108229,85.368927,0.110313,0.294507,0.688687,-0.073136,-0.126227,-0.070127,go_up
42:31.9,32.90807881,-80.10045755,32.112,36.391,1019.019,204.724556,351.44451,353.910687,-10.391124,20.658117,85.68248,0.353729,0.220456,0.950174,0.208778,-0.174791,-0.816299,go_up
42:32.1,32.90807881,-80.10045755,32.112,35.186,1019.022,199.809907,350.661933,0.544993,-10.411996,20.487652,86.185806,0.23396,0.157087,0.964065,0.111345,0.693249,1.065166,go_up
42:32.3,32.90807881,-80.10045755,32.095,36.378,1019.013,203.854513,352.091798,4.724798,-10.459805,21.191692,85.664024,0.214565,0.19302,0.565864,0.319345,0.535034,0.500726,go_up
42:32.4,32.9080704,-80.10044701,32.166,36.039,1019.013,207.037094,354.20876,6.749347,-10.205164,22.500666,84.698067,0.216989,0.204189,0.931166,-0.060002,0.111399,0.468656,go_up
42:32.6,32.9080704,-80.10044701,32.112,36.162,1019.007,212.769849,356.281394,1.383794,-9.147767,23.210566,84.318871,0.126314,-0.067061,1.335459,-0.353523,0.094295,0.255769,go_up
42:32.8,32.9080704,-80.10044701,32.13,36.541,1019.004,220.323451,2.208001,358.720282,-8.550262,23.244955,84.595825,0.016729,0.061184,0.97893,-0.060002,0.19295,0.569449,go_up
42:32.9,32.9080704,-80.10044701,32.13,36.013,1018.992,222.104136,2.646101,1.049272,-8.128345,23.630068,84.250008,0.071522,0.306404,0.68162,0.030406,-0.248706,0.30189,go_up
42:33.1,32.9080704,-80.10044701,32.166,36.115,1019,216.750388,359.488164,2.968332,-7.085995,23.823812,84.445213,0.34888,0.304947,1.013291,-0.08627,0.328257,-0.069822,go_up
42:33.3,32.9080704,-80.10044701,32.219,36.232,1018.997,212.391266,0.07428,6.268591,-6.848321,24.287287,84.494904,0.091402,0.128194,0.968695,-0.119562,0.447986,0.347094,go_up
42:33.5,32.9080704,-80.10044701,32.112,36.125,1018.991,212.385596,2.778212,8.511077,-7.735134,24.838243,84.141418,0.065945,0.308347,0.67699,-0.285412,0.569243,0.593883,go_up
42:33.6,32.9080704,-80.10044701,31.97,34.252,1018.998,214.222043,5.840452,7.806484,-7.607289,24.337395,84.513359,0.073704,0.102701,1.095417,-0.317482,-0.10332,0.00898,go_up
42:33.8,32.908062,-80.10043647,32.112,36.813,1018.996,215.398256,5.106272,10.469953,-7.197938,23.363338,85.128174,0.054793,0.108771,0.917762,0.553001,-0.007414,-0.078374,go_up
42:34.0,32.908062,-80.10043647,32.112,36.159,1018.997,216.112448,4.573277,13.169356,-6.693906,23.103519,85.337875,0.063521,0.162914,0.670166,0.165712,0.170348,0.027,go_up
42:34.1,32.908062,-80.10043647,32.006,36.288,1019.005,214.054376,1.56021,13.923657,-6.735094,23.745327,85.111458,0.084129,0.190349,0.925561,0.061254,-0.142721,0.162002,go_up
42:34.3,32.908062,-80.10043647,32.041,36.245,1019.013,219.086053,4.045024,10.56781,-5.830829,24.78932,84.13092,0.078068,-0.189845,1.412223,0.34378,0.106513,-0.035308,go_up
42:34.5,32.90804876,-80.10042776,32.077,36.072,1019.018,227.164773,5.471689,10.89916,-5.045899,25.187492,83.954582,0.049701,0.14689,0.684545,0.091798,0.044204,0.700785,go_up
42:34.7,32.90804876,-80.10042776,31.988,35.431,1019.022,232.151945,3.608935,10.556487,-3.90239,25.360207,83.864334,0.14474,0.124795,0.79104,-0.336419,0.18226,0.701701,go_up
42:34.8,32.90804876,-80.10042776,32.006,35.853,1019.029,235.627036,1.206216,10.313301,-1.375463,24.70355,83.960754,0.185229,0.202246,1.068123,-0.192255,0.276028,0.763093,go_up
42:35.0,32.90804876,-80.10042776,31.935,36.291,1019.019,237.472349,1.512602,12.942472,0.856614,23.767687,84.097519,0.020123,0.093961,0.88072,-0.099098,0.157825,0.497672,go_up
42:35.2,32.90804876,-80.10042776,31.899,36.245,1019.011,241.501887,359.925834,12.600011,2.617469,23.236841,84.114357,0.135042,0.171412,0.702334,-0.05145,-0.159214,0.387716,go_up
42:35.3,32.90804876,-80.10042776,31.917,36.142,1019.009,236.535301,357.573775,12.798317,4.857618,22.775255,84.225586,0.261114,0.149075,1.035712,0.331562,-0.334838,-0.766514,go_up
42:35.5,32.9080412,-80.10042776,32.024,36.288,1019.005,229.507228,356.812666,14.343652,5.645621,22.47571,84.405487,0.172137,0.170198,0.851721,0.399368,0.399422,0.021503,go_up
42:35.7,32.9080412,-80.10042776,32.024,36.8,1019.009,229.922708,355.87608,16.511069,5.544741,22.612942,84.292793,0.16656,0.168984,0.645066,0.359662,0.035347,0.302806,go_up
42:35.8,32.9080412,-80.10042776,31.864,36.371,1019.016,231.75615,355.26227,15.7026,6.048913,23.090521,83.609062,0.21117,0.136935,0.914838,-0.065195,-0.052618,0.463769,go_up
42:36.0,32.9080412,-80.10042776,31.899,36.066,1019.022,237.08591,353.483019,10.155872,7.250531,22.427906,83.773903,0.16753,-0.163069,1.346913,-0.505018,-0.028489,0.140011,go_up
42:36.1,32.9080412,-80.10042776,31.828,36.072,1019.022,244.336511,354.430211,8.356952,8.298388,21.741171,83.803329,0.032245,0.037147,0.805418,0.106764,0.118424,0.375805,go_up
42:36.3,32.9080412,-80.10042776,31.97,36.262,1019.031,247.310253,354.104069,10.109758,9.20834,21.330523,83.764282,0.116859,0.231624,0.678452,0.24879,-0.031238,0.203846,go_up
42:36.5,32.9080412,-80.10042776,32.006,36.577,1019.034,239.45615,356.713112,12.147962,10.188012,21.393446,83.572868,0.280995,0.252019,1.114913,0.498634,0.207305,-0.275378,go_up
42:36.6,32.9080412,-80.10042776,31.935,36.511,1019.036,231.462998,357.312632,15.307263,9.463635,22.064192,83.532166,0.19226,0.174568,0.900216,-0.029154,0.361854,0.200486,go_up
42:36.8,32.9080288,-80.10042959,31.917,36.305,1019.023,230.100963,358.454073,16.153505,8.699085,22.501196,83.956177,0.227657,0.185736,0.655788,0.065225,0.423246,0.247828,go_up
42:37.0,32.9080288,-80.10042959,31.899,36.607,1019.024,228.781916,359.236758,17.635682,8.01933,22.938086,83.476578,0.217232,0.147618,0.921418,0.296132,-0.050174,0.14673,go_up
42:37.2,32.9080288,-80.10042959,31.899,36.458,1019.007,232.86096,353.706008,17.229965,8.435874,23.203423,82.586761,0.198563,0.213657,0.959191,-0.126587,-0.614308,0.957043,go_up
42:37.3,32.9080288,-80.10042959,31.704,35.677,1019.014,229.568467,350.962304,13.416521,11.822305,20.983143,82.054535,0.023032,0.151745,0.759603,-0.507767,0.306265,-0.925644,go_up
42:37.5,32.90801283,-80.10041905,31.58,35.966,1019.02,235.174468,352.513535,12.152308,13.648202,18.638466,82.931297,0.026669,0.133293,0.727922,0.43205,-0.03643,0.335487,go_up
42:37.7,32.90801283,-80.10041905,31.509,36.142,1019.021,244.813518,352.600067,12.654364,14.0379,17.701235,83.89653,0.265721,0.184765,1.038636,0.213665,0.3307,0.078924,go_up
42:37.8,32.90801283,-80.10041905,31.509,35.993,1019.023,239.761896,358.608284,15.645826,13.87113,17.290281,84.370865,0.237839,0.204431,1.011098,0.020937,0.809924,-0.31936,go_up
42:38.0,32.90801283,-80.10041905,31.473,36.733,1019.036,235.507112,0.45881,18.788102,11.9545,18.020882,85.251144,0.097221,0.092747,0.730359,0.317512,-0.182732,-0.05119,go_up
42:38.2,32.90801283,-80.10041905,31.473,36.291,1019.035,239.792468,357.800212,20.685776,11.54446,19.190882,84.748489,0.05746,-0.00193,0.946031,0.27689,-0.243208,0.27043,go_up
42:38.3,32.90800043,-80.10042088,31.438,36.949,1019.034,250.749656,352.534571,12.280989,13.234508,19.727465,83.088112,0.204139,-0.180919,1.240661,0.006276,-0.030627,-0.05119,go_up
42:38.5,32.90800043,-80.10042088,31.544,36.551,1019.028,260.803298,352.37627,9.474333,14.625806,19.742197,81.945625,0.093099,0.164128,0.677234,0.17457,0.134001,0.826928,go_up
42:38.7,32.90800043,-80.10042088,31.491,36.673,1019.021,274.234175,351.210261,9.538135,15.986469,19.083349,81.505219,0.176986,0.166556,0.807855,-0.282968,-0.365381,0.390465,go_up
42:38.8,32.90800043,-80.10042088,31.473,36.149,1019.012,267.801851,348.953458,8.779766,17.612265,17.744417,81.002167,0.421371,0.367831,1.15756,-0.583208,0.746088,0.286007,go_up
42:39.0,32.90800043,-80.10042088,31.562,36.896,1019.016,266.890383,353.154142,9.451758,18.370495,16.413034,81.025978,0.124375,-0.058135,0.979905,-0.019685,0.463869,0.335793,go_up
42:39.2,32.90800043,-80.10042088,31.704,36.803,1019.008,267.074286,354.06075,10.613735,18.653503,16.733965,80.651062,0.155893,0.207588,0.579998,0.009025,0.219828,0.293949,go_up
42:39.3,32.90800043,-80.10042088,31.527,35.966,1019.002,269.015904,353.705635,11.314955,19.148489,16.966736,80.534286,0.127769,0.167284,1.036686,0.032849,-0.205334,0.39413,go_up
42:39.5,32.90800043,-80.10042088,31.527,34.92,1019.007,276.422814,356.766779,9.007099,19.395693,15.595343,81.298729,0.071522,-0.031118,1.113695,0.721294,0.129115,-0.441228,go_up
42:39.7,32.90800043,-80.10042088,31.544,36.159,1019.006,277.596418,356.261726,10.861741,19.209505,14.699289,81.747124,0.153953,0.178695,0.509814,0.106153,0.215247,0.314413,go_up
42:39.8,32.90799286,-80.10042088,31.598,36.122,1019.004,274.608538,354.974824,9.761235,19.711315,14.137178,81.713654,0.185714,0.292079,0.926535,-0.268002,-0.070638,0.545014,go_up
42:40.0,32.90799286,-80.10042088,31.562,37.185,1019.016,278.267081,355.95252,13.47316,20.380472,14.030272,81.367088,0.26669,0.364189,1.322055,-0.691637,0.912855,0.550207,go_up
42:40.2,32.90799286,-80.10042088,31.58,35.863,1019.024,282.548544,358.719077,12.303881,20.181452,14.034143,81.807533,0.15759,-0.002653,0.825401,0.09699,-0.056283,-0.043249,go_up
42:40.4,32.9079813,-80.10043325,31.598,36.727,1019.025,278.967537,0.05772,11.014631,19.675415,14.67204,81.854637,0.163893,0.216085,0.67041,-0.328783,0.137361,0.059682,go_up
42:40.5,32.9079813,-80.10043325,31.562,36.647,1019.029,277.6494,358.949391,8.262137,19.30892,14.69159,81.934158,0.14765,0.210501,1.174131,-0.271973,-0.370268,0.260046,go_up
42:40.7,32.9079813,-80.10043325,31.562,36.69,1019.037,280.802263,357.5694,11.235223,19.440756,13.268513,82.60099,-0.026905,0.104158,0.84709,0.615004,0.014272,-0.031643,go_up
42:40.8,32.9079813,-80.10043325,31.704,35.431,1019.052,282.292678,357.822819,12.42844,19.709799,12.792299,83.069122,0.136739,0.241336,0.538083,-0.108261,0.341085,0.411846,go_up
42:41.0,32.9079813,-80.10043325,31.527,36.484,1019.057,290.839916,358.732466,11.217399,20.628538,11.329835,83.069336,0.217232,0.180395,1.054233,-0.370322,-0.228853,0.228891,go_up
42:41.2,32.9079813,-80.10043325,31.562,36.614,1019.066,289.077843,0.020486,11.471625,21.24704,10.717166,83.034554,0.25578,0.058513,1.452433,-0.332448,0.745172,0.136345,go_up
42:41.3,32.90797374,-80.10043325,31.491,36.155,1019.065,293.613696,1.821809,12.259158,20.803795,12.514441,82.138222,0.14474,0.102216,0.685032,0.253982,-0.044677,-0.11075,go_up
42:41.5,32.90797374,-80.10043325,31.615,35.803,1019.052,287.239736,359.890281,11.652192,20.387516,14.046962,82.070572,0.197109,0.216085,0.740351,-0.080883,-0.03591,0.030842,go_up
42:41.7,32.90797374,-80.10043325,31.544,36.982,1019.053,289.209966,357.378305,10.187656,20.916401,14.266634,81.270973,0.266206,0.136449,1.286963,-0.972746,0.256695,1.030523,go_up
42:41.9,32.90797374,-80.10043325,31.562,36.414,1019.04,296.215391,359.118695,9.86455,21.493687,13.086739,81.47364,0.027881,0.127952,0.766914,0.084356,0.146739,0.160651,go_up
42:42.0,32.90797374,-80.10043325,31.491,36.607,1019.041,298.337899,0.260495,9.60218,21.613672,12.679222,81.671051,0.168985,0.2139,0.644091,-0.132501,0.079544,0.195776,go_up
42:42.2,32.90797374,-80.10043325,31.473,34.671,1019.037,300.264894,359.863096,7.388322,21.647371,11.394439,82.115845,0.254326,0.174325,1.130022,0.111539,-0.346229,-0.599571,go_up
42:42.4,32.90797374,-80.10043325,31.509,36.305,1019.038,301.355456,359.685401,10.829114,21.643702,10.568153,82.699364,0.323423,0.112656,0.913863,0.39437,-0.040491,-0.029633,go_up
42:42.5,32.90797374,-80.10043325,31.456,37.607,1019.023,288.150344,359.585973,12.257733,22.003401,11.250618,81.911011,0.163651,0.237208,0.505671,0.085578,0.258527,-0.093774,go_up
42:42.7,32.90797374,-80.10043325,31.438,36.597,1019.038,274.8921,359.682809,10.000519,22.069269,11.865921,81.756989,0.229839,0.10343,1.0903,-0.04589,-0.100771,0.142636,go_up
42:42.9,32.90796218,-80.10044561,31.385,36.673,1019.042,283.739114,357.932328,5.318535,22.070009,11.390371,81.545601,0.176016,-0.148836,1.2894,0.477927,-0.096801,-0.524734,go_up
42:43.0,32.90796218,-80.10044561,31.42,36.358,1019.045,287.823089,357.247236,6.484045,22.591206,11.190923,81.439445,0.146195,0.156358,0.474965,0.068036,0.147545,0.163711,go_up
42:43.2,32.90796218,-80.10044561,31.314,36.547,1019.043,287.175683,357.671161,5.239202,22.564722,11.33343,81.429588,0.211898,0.252504,0.749855,-0.273438,0.045225,0.101097,go_up
42:43.4,32.90795545,-80.10045615,31.349,36.59,1019.045,281.256778,359.24387,6.753448,22.267155,10.987455,81.26825,0.295299,0.348407,1.30524,-0.962494,0.969464,0.345138,go_up
42:43.5,32.90795545,-80.10045615,31.314,36.806,1019.049,283.938604,2.729231,6.781206,20.764742,11.094328,82.675499,0.119283,-0.04728,0.904115,0.011836,0.081572,0.098348,go_up
42:43.7,32.90795545,-80.10045615,31.314,36.607,1019.043,281.41784,1.356789,7.4592,19.833588,11.836293,83.009827,0.196381,0.202732,0.597057,0.075366,-0.025635,-0.136224,go_up
42:43.9,32.90795545,-80.10045615,31.278,36.086,1019.042,273.628775,358.932564,7.404726,20.004353,12.595959,82.742546,0.169712,0.159515,1.035955,0.016418,-0.243103,0.314289,go_up
42:44.0,32.90795545,-80.10045615,31.26,36.84,1019.052,277.601254,358.065204,10.477301,20.775026,11.456081,82.46711,0.016001,0.069681,0.906796,0.636141,0.099898,-0.440435,go_up
42:44.2,32.90795545,-80.10045615,31.296,36.301,1019.061,278.50805,358.109479,11.608754,21.809582,11.138017,82.357689,0.169712,0.175296,0.581461,-0.062078,0.114559,0.314289,go_up
42:44.4,32.90795062,-80.10045798,31.278,36.793,1019.058,274.220692,356.542442,8.91934,21.822971,10.574693,82.406776,0.267903,0.173597,1.016947,-0.190055,-0.300219,-0.036653,go_up
42:44.5,32.90795062,-80.10045798,31.385,36.561,1019.063,284.991436,0.196018,4.491681,22.220259,10.137197,81.847099,0.306452,-0.254976,1.51945,0.345063,0.024151,-0.556499,go_up
42:44.7,32.90795062,-80.10045798,31.314,36.8,1019.068,282.913822,359.774798,4.124014,21.866909,10.397697,81.883057,0.178925,0.125038,0.506158,0.255572,-0.101688,-0.525345,go_up
42:44.9,32.90795062,-80.10045798,31.331,36.856,1019.073,271.431489,358.329132,2.925506,21.550886,12.089873,81.564903,0.230324,0.229196,0.782511,-0.196123,0.018886,0.118625,go_up
42:45.0,32.90795062,-80.10045798,31.331,36.534,1019.076,262.133395,355.179525,358.053396,21.448584,12.754307,80.877029,0.345485,-0.02171,1.397601,-1.132885,0.443437,0.504386,go_up
42:45.2,32.90795062,-80.10045798,31.331,37.152,1019.079,267.539114,356.955504,356.139344,20.959532,12.62602,81.50753,0.076855,-0.027982,0.739376,0.145961,-0.22149,-0.155959,go_up
42:45.4,32.90795062,-80.10045798,31.243,36.747,1019.067,265.33618,354.346791,356.339863,20.636431,13.268641,81.897995,0.21311,0.2678,0.619965,-0.209562,-0.331445,-0.06097,go_up
42:45.6,32.90795062,-80.10045798,31.207,36.624,1019.074,251.181911,347.773751,357.258977,21.594189,13.255264,80.510475,0.407794,0.362247,1.070804,-0.158555,-0.010741,-0.462919,go_up
42:45.7,32.90795062,-80.10045798,31.172,36.859,1019.071,236.504866,345.951891,1.599653,21.728539,14.15251,79.810257,0.305482,0.132079,0.709645,-0.241022,0.305687,-0.397862,go_up
42:45.9,32.90793906,-80.10047035,31.207,36.72,1019.062,225.040735,344.328951,3.112286,20.457617,15.786275,80.138588,0.184986,0.228953,0.664805,0.060745,-0.062359,-0.413134,go_up
42:46.1,32.90793906,-80.10047035,31.189,37.099,1019.063,221.754512,342.566975,6.922991,19.762609,17.4123,79.676147,0.23493,0.293293,1.033762,0.314865,-0.247451,0.408786,go_up
42:46.2,32.90793906,-80.10047035,31.172,36.497,1019.052,227.837315,342.422547,9.943559,20.446589,18.170652,79.081993,0.147892,0.267072,0.755704,-0.231859,0.410145,0.022719,go_up
42:46.4,32.90793233,-80.10048089,31.101,36.962,1019.051,236.300411,344.142234,8.599078,20.537849,17.809372,79.1306,0.148619,0.232595,0.615335,-0.181768,0.067755,0.269814,go_up
42:46.6,32.90793233,-80.10048089,31.154,36.849,1019.051,249.236277,344.449398,6.315426,20.737415,16.784655,79.505257,0.350819,0.069681,1.071291,-0.056473,-0.184262,-0.262791,go_up
42:46.8,32.90793233,-80.10048089,31.118,36.989,1019.052,247.37447,347.015584,7.016508,20.710419,16.011227,80.648178,0.2696,0.239636,0.995014,0.290193,0.584512,-0.132676,go_up
42:46.9,32.90793233,-80.10048089,31.172,36.65,1019.04,241.87319,350.421192,9.35594,19.241873,15.627482,81.557236,0.116859,0.187921,0.495192,0.145723,0.33589,-0.676957,go_up
42:47.1,32.90793233,-80.10048089,31.225,37.836,1019.046,257.647027,351.639801,11.87183,17.198507,16.373913,82.140038,0.193472,0.141548,0.903872,0.467344,0.026181,0.424127,go_up
42:47.3,32.90793233,-80.10048089,31.225,36.484,1019.022,265.166191,351.076561,5.881727,17.255594,15.698049,83.18515,0.043398,0.062155,1.077627,0.241018,-0.323539,-0.439942,go_up
42:47.4,32.90792077,-80.10049325,31.083,36.886,1019.014,269.115536,349.373361,6.258302,17.767166,14.161878,83.901825,0.059884,0.082064,0.719637,0.477117,-0.296356,0.028592,go_up
42:47.6,32.90792077,-80.10049325,31.118,36.796,1019.012,277.484341,348.649069,7.926376,19.002069,13.697832,83.386826,0.083159,0.18865,0.843922,0.119761,-0.187622,0.291264,go_up
42:47.8,32.90792077,-80.10049325,31.065,38.175,1019.016,278.450758,350.831306,10.236039,20.011803,13.851816,82.759422,0.333606,0.258088,1.111989,-0.210411,0.90094,-0.182767,go_up
42:47.9,32.90792077,-80.10049325,31.083,36.756,1019.015,272.75395,352.248332,7.005774,18.312565,14.398345,83.906387,0.174319,0.043217,0.767889,0.056231,-0.303686,-0.34709,go_up
42:48.1,32.90792077,-80.10049325,31.136,37.431,1019.008,272.330062,351.559384,6.648928,17.069023,15.149898,84.154495,0.176016,0.189378,0.781048,-0.001017,-0.078522,-0.064775,go_up
42:48.3,32.90792077,-80.10049325,31.136,36.969,1019.005,274.212018,349.857193,6.333433,17.15295,15.626856,83.57061,0.094554,0.273627,1.076653,-0.712064,-0.035761,0.697585,go_up
42:48.5,32.90792077,-80.10049325,31.047,36.853,1019.016,284.99076,350.327064,3.632403,17.584494,15.172182,84.17585,-0.000741,0.002428,0.837586,-0.15862,0.287387,0.295941,go_up
42:48.6,32.90792077,-80.10049325,31.065,36.903,1019.027,292.259092,351.576178,2.248042,17.799704,13.651063,84.315971,0.118798,0.197633,0.69941,0.009761,-0.029769,0.123756,go_up
42:48.8,32.90792077,-80.10049325,31.136,37.002,1019.033,301.268282,350.939129,2.93528,18.636789,12.543867,84.380554,0.185714,0.199333,1.071535,0.216539,-0.204782,-0.30385,go_up
42:49.0,32.90792077,-80.10049325,31.118,36.816,1019.024,294.493438,348.474655,5.902315,18.915779,11.642056,84.859886,0.251174,0.133293,0.693318,0.10078,0.413108,-0.059198,go_up
42:49.1,32.90792077,-80.10049325,31.065,36.972,1019.02,287.396995,348.716192,9.621074,18.091625,11.593814,85.189316,0.051641,0.178695,0.5432,0.217761,-0.005945,0.114899,go_up
42:49.3,32.90792161,-80.10050379,31.047,37.477,1019.01,300.147196,349.419427,9.655311,18.077425,11.842995,85.114052,0.168015,0.082064,1.03035,-0.035443,0.130583,0.351914,go_up
42:49.5,32.90792161,-80.10050379,31.012,37.079,1019.023,303.93108,349.82966,8.432328,18.315798,9.851843,85.627914,0.048732,0.012382,1.173888,0.721114,-0.339172,-0.374404,go_up
42:49.6,32.90792161,-80.10050379,31.118,36.979,1019.02,305.50637,348.587269,11.496293,18.848122,9.907982,85.023216,0.096251,0.117026,0.485444,0.176527,-0.045346,0.086799,go_up
42:49.8,32.90792161,-80.10050379,30.905,37.892,1019.017,315.8921,348.168303,10.16412,19.690025,10.655118,83.892693,0.173349,0.180638,1.020846,-0.169833,-0.197452,0.148191,go_up
42:50.0,32.90791761,-80.10051616,30.799,34.265,1019.024,324.173544,354.153592,5.591268,20.405176,11.18052,82.689087,0.150559,-0.172477,1.592559,0.246472,0.108592,-0.121201,go_up
42:50.2,32.90791761,-80.10051616,30.888,36.962,1019.025,323.634362,356.483003,5.278425,20.13899,11.421357,82.782936,0.129466,0.102701,0.57683,0.143846,-0.021522,-0.086381,go_up
42:50.3,32.90791761,-80.10051616,30.834,37.172,1019.028,323.840736,356.041902,4.713541,19.585802,12.488764,82.88121,0.14377,0.159758,0.816141,0.044373,0.168025,0.117582,go_up
42:50.5,32.90790605,-80.10052853,30.941,36.703,1019.035,336.365997,357.430345,5.491762,19.631964,13.049982,83.376801,0.130678,0.145676,1.438055,-0.983102,0.044936,0.930033,go_up
42:50.7,32.90790605,-80.10052853,31.047,35.896,1019.034,341.354625,358.123394,5.454471,19.483175,12.190506,83.851257,0.056975,0.126495,0.700872,0.121953,0.197041,0.424848,go_up
42:50.8,32.90790605,-80.10052853,30.852,36.929,1019.049,347.166176,358.756877,5.950635,19.798389,11.283738,83.974998,0.081947,0.223126,0.683813,-0.160408,-0.10741,0.160073,go_up
42:51.0,32.90790605,-80.10052853,30.763,36.933,1019.044,350.535538,355.874124,8.227812,20.45447,10.12813,83.945015,0.297966,0.343066,1.077627,0.309958,-0.345036,-0.101988,go_up
42:51.2,32.90790605,-80.10052853,30.71,36.989,1019.049,333.428631,354.858336,9.707674,21.196529,9.932987,83.07869,0.204382,0.069924,0.836124,-0.080996,0.449089,-0.51249,go_up
42:51.3,32.90790605,-80.10052853,30.692,37.148,1019.054,328.056892,358.378758,10.484831,21.291395,10.996663,82.523689,0.064976,0.28868,0.65457,-0.016872,0.105506,-0.092166,go_up
42:51.5,32.90790605,-80.10052853,30.604,36.537,1019.051,337.364398,0.955071,11.208848,20.60803,12.098542,83.030838,0.172379,0.232595,1.117837,-0.231591,0.075574,0.357431,go_up
42:51.7,32.90790605,-80.10052853,30.692,37.268,1019.047,339.113529,359.692713,14.526166,20.305183,11.272786,83.575424,-0.077013,0.16607,0.875115,0.373776,0.086569,0.183639,go_up
42:51.9,32.90790689,-80.10053906,30.639,36.876,1019.049,340.704007,358.481843,15.313911,20.681408,10.21841,83.156563,0.061096,0.178695,0.521999,-0.134911,-0.093541,-0.149414,go_up
42:52.0,32.90790689,-80.10053906,30.639,36.604,1019.041,346.58973,357.638388,13.548081,21.267385,9.595723,83.509453,0.194442,0.147375,0.995989,-0.066578,-0.037915,-0.130086,go_up
42:52.2,32.90790689,-80.10053906,30.781,36.896,1019.057,354.080245,1.25071,7.490364,21.487242,8.787762,83.487511,0.251416,-0.126644,1.25382,0.294443,-0.216898,-0.615113,go_up
42:52.4,32.9079029,-80.10055143,30.799,37.035,1019.053,345.843418,2.218351,5.578644,20.363483,7.718215,84.027115,0.181592,0.057299,0.622402,0.293527,0.09953,-0.408335,go_up
42:52.5,32.9079029,-80.10055143,30.692,36.67,1019.043,339.406816,0.859873,4.409452,19.540163,7.688973,84.254509,0.189835,0.14689,0.767158,0.16158,0.211013,0.373573,go_up
42:52.7,32.9079029,-80.10055143,30.621,37.351,1019.053,346.860549,1.376702,0.090437,19.815247,7.144798,84.483208,0.163651,-0.166928,1.508727,-0.324058,0.291953,0.311875,go_up
42:52.9,32.9079029,-80.10055143,30.604,36.873,1019.067,347.492658,2.563018,358.586961,19.430775,6.354705,84.592682,-0.011354,0.072109,0.664561,0.086138,-0.032111,-0.030209,go_up
42:53.0,32.9079029,-80.10055143,30.55,36.826,1019.076,349.587494,2.552703,359.974303,19.272247,6.673041,84.379745,0.062551,0.198604,0.724998,-0.040219,-0.070016,0.058777,go_up
42:53.2,32.9079029,-80.10055143,30.444,36.717,1019.078,353.529688,2.21185,2.697844,19.674948,6.693156,84.485336,0.221111,0.292808,1.171938,-0.318773,0.585137,0.607945,go_up
42:53.4,32.90789134,-80.1005638,30.533,37.055,1019.065,0.425265,3.696553,3.686312,19.589472,6.666744,84.532242,0.103282,-0.026052,0.986729,-0.225922,0.379276,-0.113487,go_up
42:53.6,32.90789134,-80.1005638,30.497,37.902,1019.07,357.502874,6.359179,5.543536,19.203695,6.945337,85.02269,-0.011108,0.308832,0.62094,0.081954,-0.022979,0.085044,go_up
42:53.7,32.90789134,-80.1005638,30.408,36.756,1019.083,4.645809,7.553866,9.366275,18.88763,7.78093,85.004539,0.032488,0.213657,1.133922,0.266436,-0.138738,0.534335,go_up
42:53.9,32.90789134,-80.1005638,30.337,37.109,1019.088,5.833562,6.731869,13.557651,19.147264,6.706436,85.104866,-0.075779,0.133293,0.84246,0.226424,0.041162,0.055112,go_up
42:54.1,32.90789134,-80.1005638,30.462,36.57,1019.073,9.084271,4.924433,15.392583,19.483793,5.602565,84.981178,0.120981,0.11387,0.531015,0.036139,0.078119,0.427434,go_up
42:54.2,32.90789134,-80.1005638,30.479,36.946,1019.065,18.493007,0.645504,13.587855,19.893745,4.208328,84.290756,0.202442,0.146647,1.003056,-0.403073,-0.361093,-0.099132,go_up
42:54.4,32.90789134,-80.1005638,30.533,36.617,1019.066,22.977562,359.207545,7.59082,20.554745,2.149003,83.961349,0.267903,-0.16524,1.595483,0.468021,0.59766,0.285408,go_up
42:54.6,32.90789134,-80.1005638,30.533,36.534,1019.075,19.104562,2.482888,7.719985,20.777361,2.02371,83.725655,0.093584,-0.012544,0.784704,0.374559,-0.007402,-0.375854,go_up
42:54.7,32.90789134,-80.1005638,30.337,36.986,1019.066,18.007005,2.297788,8.399956,20.899319,3.648578,84.261665,0.089705,0.270714,0.684788,-0.148953,0.132181,0.484855,go_up
42:54.9,32.90789134,-80.1005638,30.479,36.886,1019.064,28.266314,4.403541,10.472214,21.715935,3.617271,84.392311,0.03467,0.330926,1.176081,0.017813,0.256797,1.175133,go_up
42:55.1,32.90789134,-80.1005638,30.462,36.667,1019.058,33.786805,4.250313,16.719149,21.903387,1.286565,85.284744,0.064491,0.202975,0.613629,-0.027391,0.584527,0.485466,go_up
42:55.3,32.90789134,-80.1005638,30.479,36.727,1019.051,41.98993,3.528662,18.075421,20.2882,-0.995787,86.394714,0.178198,0.153931,0.629713,-0.184994,0.080563,0.67514,go_up
42:55.4,32.90788818,-80.1005867,30.391,36.972,1019.063,46.251893,0.818031,16.583424,18.757374,-3.602736,87.407524,0.222808,0.173597,1.019384,-0.021893,-0.146374,-0.745427,go_up
42:55.6,32.90788818,-80.1005867,30.355,37.055,1019.059,45.490918,4.751039,12.862273,18.160521,-4.669146,86.945023,0.169712,-0.172718,1.165115,0.361731,-0.099337,-1.014208,go_up
42:55.8,32.90788818,-80.1005867,30.178,36.551,1019.052,36.368053,4.548886,11.025624,18.214254,-3.639457,87.549133,0.040246,0.108285,0.613872,0.082565,-0.212958,-0.425945,go_up
42:55.9,32.90788818,-80.1005867,30.195,37.251,1019.06,36.361219,2.914861,9.089238,18.788807,-2.349843,86.990372,0.065218,0.208559,0.901435,-0.308389,0.191129,0.326947,go_up
42:56.1,32.90788818,-80.1005867,30.142,36.703,1019.064,39.555746,5.084278,1.076242,19.431231,-3.902921,86.718369,-0.060722,-0.09239,1.422459,0.509865,-0.073681,-0.446103,go_up
42:56.3,32.90788818,-80.1005867,30.142,36.873,1019.075,39.583921,5.057759,1.452216,19.531412,-5.742284,86.043571,0.020608,-0.041732,0.676746,0.11769,-0.175084,0.383452,go_up
42:56.4,32.90788986,-80.10060778,30.107,36.607,1019.074,41.22832,6.570546,4.955237,19.102976,-7.188024,85.692955,0.185229,0.28601,0.681133,0.113719,0.488926,0.348327,go_up
42:56.6,32.90788986,-80.10060778,30.178,36.737,1019.077,48.300069,7.581158,4.655954,18.465319,-7.44038,86.133514,0.306209,-0.304427,2.019272,-0.075038,0.823986,0.988208,go_up
42:56.8,32.90788986,-80.10060778,30.036,36.843,1019.072,46.370363,11.734087,1.332931,18.393873,-7.202113,86.12851,0.052853,0.036176,0.841241,0.076762,0.025279,-0.416171,go_up
42:56.9,32.90788986,-80.10060778,30,37.039,1019.073,44.488652,10.855571,3.012528,19.112848,-5.365125,86.468697,0.152256,0.239151,0.530772,-0.384441,0.147452,0.008686,go_up
42:57.1,32.90788986,-80.10060778,29.805,36.986,1019.075,47.547419,8.694187,4.45007,20.149744,-4.982933,86.334053,0.038549,0.226768,1.12198,-0.799524,0.019476,1.396572,go_up
42:57.3,32.90788986,-80.10060778,29.947,36.544,1019.068,48.96535,7.554606,6.047022,20.120111,-7.016065,86.110588,0.017699,0.011411,0.732065,-0.166668,-0.078873,0.359933,go_up
42:57.4,32.90788986,-80.10060778,30.018,36.404,1019.064,51.326235,3.044934,8.700012,20.537214,-8.317055,85.458412,0.176501,0.159272,0.566839,0.471075,-0.143319,0.353519,go_up
42:57.6,32.90788986,-80.10060778,29.947,36.654,1019.068,55.887265,358.647773,12.717963,21.235832,-8.938949,84.732697,0.253356,0.132808,0.978199,0.516585,0.12485,-0.09058,go_up
42:57.8,32.90788986,-80.10060778,30.107,37.613,1019.062,57.281702,0.948497,13.15691,21.271788,-8.243434,85.22126,0.284147,-0.00796,0.998182,0.658306,0.07537,-0.866989,go_up
42:57.9,32.9078907,-80.10061832,30.036,36.534,1019.072,55.835075,0.30428,15.652915,20.279482,-6.480319,86.360329,0.184744,0.204431,0.546125,0.122743,-0.068719,0.086875,go_up
42:58.1,32.9078907,-80.10061832,30.053,36.8,1019.079,59.892208,356.699541,14.506137,20.447561,-5.460319,86.448273,0.308876,0.134021,0.883645,-0.045855,-0.267556,0.020597,go_up
42:58.3,32.9078907,-80.10061832,29.965,36.929,1019.073,66.476606,354.648981,8.427291,20.864489,-5.723588,86.230217,0.214565,-0.019298,1.473148,-0.642976,1.009458,0.540137,go_up
42:58.4,32.90789154,-80.10062885,30.16,37.006,1019.067,68.311263,357.316803,3.64573,19.899128,-7.028266,86.401421,0.120011,0.09736,0.677234,0.017369,0.453571,0.133301,go_up
42:58.6,32.90789154,-80.10062885,29.982,36.76,1019.063,70.060228,358.1984,7.221793,18.077469,-7.997719,86.549477,0.083886,0.139849,0.696729,0.274543,0.055287,0.091152,go_up
42:58.8,32.90789154,-80.10062885,30.036,36.823,1019.053,70.42033,357.849757,7.744993,17.14216,-8.321963,87.162529,0.268388,0.257117,1.14172,-0.274014,0.703415,0.152543,go_up
42:58.9,32.90789154,-80.10062885,29.929,36.673,1019.051,69.492401,358.578517,7.569106,15.619097,-9.339408,87.387711,0.130436,0.135478,0.762771,-0.244998,0.487474,-0.049042,go_up
42:59.1,32.90789154,-80.10062885,30.018,36.285,1019.065,67.799251,359.927244,12.202126,15.387102,-10.225515,87.60466,0.083886,0.13305,0.682839,0.368006,0.193648,-0.250933,go_up
42:59.3,32.90789154,-80.10062885,29.911,36.766,1019.061,67.90878,359.019715,12.424276,15.330861,-9.644734,88.021919,0.123405,-0.019298,1.029375,-0.128628,0.049178,-0.03316,go_up
42:59.4,32.90789238,-80.10063939,29.965,36.487,1019.069,70.0749,3.592239,8.58733,15.498734,-10.6131,87.372406,-0.174019,-0.074298,1.178762,0.026838,-0.039398,0.239592,go_up
42:59.6,32.90789238,-80.10063939,30.142,36.976,1019.072,69.721342,3.573179,8.876303,14.248063,-12.867412,86.597931,0.034185,0.158058,0.594864,0.311195,0.103545,0.545635,go_up
42:59.8,32.90789238,-80.10063939,29.965,36.972,1019.083,75.082904,359.067136,11.188955,13.234699,-14.189681,86.547073,0.080734,0.170683,0.869023,0.116329,-0.251673,0.584731,go_up
43:00.0,32.90789238,-80.10063939,29.858,37.381,1019.1,83.380436,3.715879,11.185364,12.941576,-14.72911,86.577034,0.090917,-0.368111,1.999776,-0.410542,0.824977,1.04288,go_up
43:00.1,32.90789238,-80.10063939,29.911,36.78,1019.1,82.762174,8.214565,8.348682,11.731453,-15.285419,87.365852,0.107646,-0.019539,0.809074,-0.058684,0.208919,-0.073477,go_up
43:00.3,32.90789238,-80.10063939,30.036,37.009,1019.108,81.579506,9.312849,9.757832,11.855856,-15.197712,87.88504,0.133345,0.137421,0.749124,0.195436,-0.248619,-0.268648,go_up
43:00.5,32.90789238,-80.10063939,29.84,36.59,1019.104,81.766175,6.775687,11.096587,13.007198,-14.554805,88.620049,0.151529,0.210258,1.008417,-0.828068,-0.045812,0.898104,go_up
43:00.6,32.90789238,-80.10063939,29.769,37.866,1019.11,79.992539,3.494228,12.837877,12.848197,-14.886821,89.463997,0.002182,0.137421,0.600956,0.214679,0.122787,0.118335,go_up
43:00.8,32.90790162,-80.10066047,29.752,36.833,1019.114,82.222849,1.321148,14.6604,12.144203,-15.665075,88.648758,0.081947,0.066525,0.714519,0.121827,0.019856,0.29121,go_up
43:01.0,32.90790162,-80.10066047,29.627,36.471,1019.12,85.013275,2.598157,13.919721,11.77428,-16.297525,88.198029,0.126314,0.141305,1.123199,0.121522,0.249847,-0.084472,go_up
43:01.1,32.90790162,-80.10066047,29.769,36.428,1019.119,85.443044,1.396622,12.869384,10.410881,-16.757946,88.518761,0.320271,-0.007478,0.971376,0.633427,0.156385,-0.769252,go_up
43:01.3,32.90790162,-80.10066047,29.663,37.414,1019.124,81.870623,0.690697,15.118081,9.716475,-15.578513,88.908516,0.120738,0.173839,0.550999,0.280347,0.046735,-0.666932,go_up
43:01.5,32.90791002,-80.10067101,29.61,36.846,1019.123,81.555689,358.675246,15.470708,11.177911,-13.994242,89.682968,0.12389,0.025736,0.992334,0.177581,-0.005479,0.044475,go_up
43:01.6,32.90791002,-80.10067101,29.468,36.66,1019.134,87.704492,358.672217,8.049001,12.52266,-13.078707,89.766548,0.056975,-0.090701,1.495324,-0.756432,0.086456,0.778429,go_up
43:01.8,32.90791002,-80.10067101,29.681,36.936,1019.143,88.769045,359.522954,6.304806,11.908589,-13.530968,89.073654,0.073461,0.073566,0.584872,0.076177,-0.018613,0.308368,go_up
43:02.0,32.90791002,-80.10067101,29.574,37.055,1019.155,90.377712,357.580616,5.836815,11.410535,-14.083304,88.815895,0.131648,0.134021,0.854645,-0.180692,-0.087946,0.123276,go_up
43:02.1,32.90791002,-80.10067101,29.503,37.016,1019.161,86.783127,354.099761,8.963475,12.283352,-15.055794,88.34375,0.177713,0.20953,0.956998,0.430174,-0.258988,-0.286004,go_up
43:02.3,32.90791002,-80.10067101,29.556,37.182,1019.168,79.32484,353.39911,15.407616,13.356753,-15.063883,87.94001,0.172379,0.14082,0.809317,0.694984,0.521698,-0.437804,go_up
43:02.5,32.9079157,-80.10067972,29.681,37.165,1019.168,78.117946,354.355644,19.885891,14.375888,-13.936638,88.028679,0.162196,0.218028,0.450595,0.079842,0.305451,-0.055402,go_up
43:02.6,32.9079157,-80.10067972,29.645,36.849,1019.161,80.399694,355.740201,20.369668,14.697329,-12.829811,88.640991,0.121708,0.172383,1.097123,0.029751,0.525668,0.396028,go_up
43:02.8,32.9079157,-80.10067972,29.698,36.886,1019.17,82.793326,0.31529,14.889201,13.28145,-14.097034,88.884842,0.004122,-0.135569,1.25114,0.222479,0.073933,-0.770114,go_up
43:03.0,32.9079157,-80.10067972,29.734,36.145,1019.163,81.740562,0.550718,14.628518,11.700103,-14.131656,89.106895,0.04267,0.090319,0.565377,0.181857,-0.165831,0.548744,go_up
43:03.2,32.9079157,-80.10067972,29.823,35.949,1019.152,87.181067,357.710816,13.397385,11.178946,-14.093456,89.203377,0.139164,0.155144,0.817847,-0.319358,0.102033,0.521866,go_up
43:03.3,32.9079157,-80.10067972,29.769,37.175,1019.147,87.895034,355.839145,15.157433,10.346852,-15.179139,88.978622,0.278328,0.30082,1.230669,-0.519417,0.084013,0.184363,go_up
43:03.5,32.9079157,-80.10067972,29.752,37.381,1019.152,86.692436,357.716494,17.401338,9.60333,-15.16517,89.640327,0.112737,0.042731,0.815897,0.124741,0.221152,-0.193763,go_up
43:03.7,32.9079157,-80.10067972,29.752,36.866,1019.155,85.470692,359.907069,18.220882,9.556791,-14.188444,90.217224,0.147407,0.189135,0.605099,0.02181,-0.028387,-0.30097,go_up
43:03.8,32.90791654,-80.10069025,29.539,36.092,1019.164,87.052837,359.098411,17.502402,10.168011,-14.200881,90.781189,0.03564,0.101487,1.289644,-0.283928,-0.201261,0.479105,go_up
43:04.0,32.90791654,-80.10069025,29.663,36.929,1019.163,84.368928,359.524882,19.1482,9.951996,-14.831799,89.83474,-0.001234,0.14689,0.714275,0.196823,0.142045,-0.061816,go_up
43:04.2,32.90791654,-80.10069025,29.627,37.135,1019.164,85.039202,358.260671,20.110616,9.194839,-14.684068,89.599594,0.108616,0.148103,0.543931,0.107942,0.035754,0.276603,go_up
43:04.3,32.90791654,-80.10069025,29.556,37.112,1019.161,89.395449,356.810539,18.621657,8.404604,-15.052609,89.03241,0.183532,0.128194,1.031569,-0.177027,-0.03419,0.173673,go_up
43:04.5,32.90792494,-80.10070079,29.769,37.175,1019.165,90.242392,358.463709,14.799492,8.444237,-15.452468,88.725693,0.270812,-0.048245,1.549912,-0.252774,0.518338,0.227734,go_up
43:04.7,32.90792494,-80.10070079,29.716,37.029,1019.173,93.552944,0.014266,10.997264,7.761865,-15.844166,89.054466,0.152498,-0.028223,0.738889,0.061516,-0.242495,-0.658631,go_up
43:04.8,32.90792494,-80.10070079,29.734,37.285,1019.17,90.308065,359.1646,11.288896,8.565757,-15.392162,89.701935,0.144498,0.150046,0.803712,0.157117,0.082485,-0.422837,go_up
43:05.0,32.90792494,-80.10070079,29.574,37.165,1019.163,88.315008,356.660415,12.58206,10.180139,-14.545655,89.855591,0.093827,0.202003,1.131241,-0.6984,-0.040298,0.498958,go_up
43:05.2,32.90792494,-80.10070079,29.645,37.195,1019.161,86.649508,356.559536,13.325273,11.120212,-14.495795,89.514153,-0.092563,0.098331,0.635805,0.045023,0.028424,0.257667,go_up
43:05.4,32.90793902,-80.10072004,29.539,37.148,1019.169,87.468099,355.859936,13.014698,10.97399,-14.528748,88.897942,0.128254,0.141791,0.710864,-0.082953,-0.022889,0.3945,go_up
43:05.5,32.90793902,-80.10072004,29.539,36.972,1019.17,88.790171,353.31548,13.204025,11.027822,-15.191567,88.470589,0.211655,0.185008,1.060325,0.717586,-0.288921,-0.244159,go_up
43:05.7,32.90793902,-80.10072004,29.681,37.006,1019.171,85.993523,354.111689,18.241098,11.188252,-14.933253,88.409561,0.23493,0.135235,0.846359,0.484541,0.461222,-0.41795,go_up
43:05.9,32.90793902,-80.10072004,29.645,36.946,1019.178,84.233957,354.970858,20.323909,10.823153,-13.579649,89.071213,0.142801,0.206859,0.501284,-0.165726,0.108753,-0.249352,go_up
43:06.1,32.90793902,-80.10072004,29.645,36.989,1019.162,83.524621,356.474528,19.978549,12.073284,-12.543024,89.916779,0.08025,0.099059,1.085669,-0.030419,0.240089,-0.107936,go_up
43:06.2,32.90793902,-80.10072004,29.681,37.172,1019.17,83.864765,358.622088,14.207625,12.046308,-13.145635,90.250282,-0.041715,-0.088047,1.161216,0.650696,0.106004,-0.603348,go_up
43:06.4,32.90793902,-80.10072004,29.645,37.623,1019.166,83.062805,358.098017,15.59737,11.335591,-13.509694,90.121475,0.059399,0.137906,0.556604,0.167196,-0.110548,0.84593,go_up
43:06.6,32.90793902,-80.10072004,29.663,37.311,1019.167,90.253198,355.010094,15.749339,10.419783,-13.935555,89.471146,0.179895,0.198604,0.876578,-0.338295,0.0046,0.732309,go_up
43:06.7,32.90793902,-80.10072004,29.645,36.511,1019.161,91.179351,354.638984,16.836077,9.898815,-14.701671,89.133034,0.359547,0.27824,1.123686,-0.314777,0.732446,-0.037381,go_up
43:06.9,32.90793985,-80.10073058,29.645,37.401,1019.163,90.310865,0.273758,18.217872,8.860615,-14.980528,89.437279,0.132375,0.065554,0.862931,-0.135488,0.292623,-0.47751,go_up
43:07.1,32.90793985,-80.10073058,29.716,37.328,1019.156,87.202432,2.054945,16.235085,8.512379,-14.499817,89.953659,0.129709,0.150289,0.720368,-0.273238,-0.215311,-0.537985,go_up
